Site;Monument Description;Height of Monument (m);Monument Foundation;Foundation Depth (m);Geologic Characteristic;Sta;Lat(deg);Long(deg);Hgt(m);X(m);Y(m);Z(m);Dtbeg;Dtend;Dtmod;NumSol;StaOrigName
1LSU;STEEL MAST;:  ROOF;:;;;1LSU;30.4074;268.8197;-6.487;-113402.8795;-5504361.3939;3209404.2335;2003-04-23;2022-09-24;2022-10-01;6636.0;
1NSU;STEEL MAST;:  ROOF;:;;;1NSU;31.7508;266.9024;28.071;-293349.5323;-5420742.3561;3336980.8353;2004-01-16;2022-09-24;2022-10-01;6710.0;
1ULM;STEEL MAST;:  ROOF;:;;;1ULM;32.529;267.9241;16.0;-194982.0141;-5379221.9515;3410046.833;2003-06-14;2022-09-24;2022-10-01;6814.0;
34A1;PERMANENT STATION UNSPECIFIED;:;:;;;34A1;41.8387;240.346;1907.677;-2355255.8623;-4136920.1139;4233541.9024;2015-03-16;2016-04-29;2022-05-10;99.0;
34A2;PERMANENT STATION UNSPECIFIED;:;:;;;34A2;41.8531;240.3926;1862.779;-2351343.163;-4137874.1378;4234708.7113;2015-03-20;2016-10-18;2022-05-10;148.0;
34A3;PERMANENT STATION UNSPECIFIED;:;:;;;34A3;41.8507;240.4229;1831.947;-2349236.2215;-4139247.3496;4234490.9842;2015-03-18;2016-04-28;2022-05-10;64.0;
34A4;PERMANENT STATION UNSPECIFIED;:;:;;;34A4;41.8666;240.5052;1708.216;-2342662.2508;-4141514.2631;4235721.3273;2015-03-18;2016-04-28;2022-05-10;98.0;
34NO;PERMANENT STATION UNSPECIFIED;:;:;;;34NO;41.9291;240.2914;1768.973;-2355818.5174;-4128755.3272;4240933.7708;2015-03-14;2016-04-28;2022-05-10;102.0;
34SO;PERMANENT STATION UNSPECIFIED;:;:;;;34SO;41.8059;240.2932;1705.89;-2360200.469;-4136724.4522;4230693.0455;2015-03-14;2016-04-29;2022-05-10;102.0;
7OAK;Steel Pin in Rock;:  UNKNOWN;:;;;7OAK;37.595;245.2409;1713.278;-2119707.4227;-4596082.9515;3870967.7786;2010-10-18;2022-09-13;2022-09-25;305.0;
7ODM;Wyatt/Agnew drilled-braced;:;: Bedrock;;;7ODM;34.1164;242.9068;762.072;-2407750.878;-4706536.7233;3557571.3926;2001-04-20;2021-03-03;2022-05-10;5931.0;
ABAN;:;:                      :;;;;ABAN;38.1751;358.9463;207.753;5019756.9427;-92324.1141;3920866.4967;2009-09-01;2022-09-17;2022-09-25;4166.0;
ABQ5;STEEL TOWER;:;:;;;ABQ5;34.9574;253.5055;1719.74;-1486206.9395;-5019130.4707;3634977.9941;2002-10-24;2016-08-04;2022-05-10;4581.0;
ABQ6;STEEL TOWER;:;:;;;ABQ6;34.9571;253.5055;1720.65;-1486213.0782;-5019145.7911;3634956.0764;2002-10-24;2016-08-04;2022-05-10;4411.0;
ABRN;Steel Pin in Rock;:  UNKNOWN;:;;;ABRN;42.7607;239.8997;1370.484;-2352627.9657;-4058454.5528;4308955.5792;2015-02-26;2021-06-17;2022-05-10;159.0;
ACAL;:;:                      :;;;;ACAL;37.7308;359.1392;67.368;5050254.9684;-75879.398;3881893.9911;2015-02-24;2022-09-17;2022-09-25;2247.0;
ACHT;STEEL MAST;6.00;CONCRETE PAD;1.20;GRAVEL;ACHT;45.5128;298.9734;21.02;2168735.6198;-3916792.4077;4527480.15;2014-08-23;2022-09-24;2022-10-01;2943.0;
ACIN;STEEL MAST ANCHORED TO WALL;1.5;ROOF;:;;ACIN;40.4089;358.5632;1178.322;4862768.0973;-121966.0309;4113424.5867;2010-03-31;2019-12-31;2022-05-10;2658.0;
ACNS;PILLAR;1.5;CONCRETE BLOCK ON ROOF;0.5                :;;ACNS;41.7001;353.6479;871.222;4740593.4514;-527730.5859;4221366.9739;2008-02-19;2022-09-17;2022-09-25;5264.0;
ACOR;STEEL MAST;3;CONCRETE BLOCK;2;CONGLOMERATE;ACOR;43.3644;351.6011;66.916;4594489.7469;-678367.8806;4357066.0719;1998-12-11;2022-09-17;2022-09-25;8189.0;
ACSB;DEEP-DRILLED BRACED;:;:;;;ACSB;33.2743;242.5551;-12.296;-2460183.5738;-4737087.498;3479422.7215;2013-12-04;2022-09-24;2022-10-01;3210.0;
ACSO;DEEP-DRILLED BRACED;:;:;;;ACSO;40.2324;277.0185;248.174;595828.2307;-4839733.9168;4097876.5926;2006-08-20;2022-09-24;2022-10-01;4838.0;
ACSX;DEEP-DRILLED BRACED;:;:;;;ACSX;33.2743;242.5551;-12.291;-2460183.6467;-4737087.4397;3479422.7579;2016-04-22;2022-09-24;2022-10-01;2340.0;
ACU2;STEEL TOWER;:;:;;;ACU2;41.7436;289.1135;3.659;1560585.5906;-4503266.288;4224402.1482;2002-03-09;2004-02-20;2022-05-10;234.0;
ACU5;STEEL TOWER;:;:;;;ACU5;41.7436;289.113;5.286;1560550.4669;-4503284.5783;4224398.1126;2002-03-09;2020-06-30;2022-05-10;5969.0;
ACU6;STEEL TOWER;:;:;;;ACU6;41.7433;289.1134;5.021;1560586.4347;-4503296.253;4224372.1533;2004-02-21;2020-06-25;2022-05-10;5290.0;
ADKS;BOREHOLE EXTENSOMETER;:;:;;;ADKS;29.791;264.4136;2.831;-539282.7289;-5513496.8493;3150287.2103;2002-02-20;2022-09-24;2022-10-01;6475.0;
ADLL;Steel Pin in Rock;:  UNKNOWN;:;;;ADLL;42.1964;239.9933;1545.864;-2367239.9482;-4099071.0162;4262828.5177;2015-02-27;2021-06-16;2022-05-10;283.0;
ADRI;PILLAR;1.52;POURED CONCRETE CYLINDER;3.66               :;;ADRI;41.919;275.9757;205.96;494838.1799;-4727340.1263;4239050.3237;2002-02-05;2022-09-24;2022-10-01;6931.0;
ADVT;STEEL MAST;4.00;CONCRETE BLOCK;1.00;PIT RUN GRAVEL;ADVT;45.3409;295.2123;-9.457;1912927.3515;-4062906.7137;4514053.6284;2015-09-23;2022-09-24;2022-10-01;2543.0;
AGMT;SHALLOW DRILLED-BRACED;:;: Bedrock;;;AGMT;34.5943;243.5706;1337.823;-2339956.2015;-4707748.8375;3601666.0835;1999-12-22;2022-09-24;2022-10-01;8267.0;
AGNS;SHORT-DRILLED BRACED;:;:;;;AGNS;42.5528;235.9409;51.368;-2635435.8109;-3898512.0425;4291069.0522;2021-06-18;2022-09-24;2022-10-01;463.0;
AGRD;STEEL MAST;1.5;ROOF;0                  :;;AGRD;41.849;358.0694;1010.901;4756259.3162;-160320.9323;4233796.8767;2007-05-01;2022-09-17;2022-09-25;5382.0;
AGUA;Steel Pin in Rock;:  UNKNOWN;:;;;AGUA;34.2479;247.9415;978.644;-1982413.2067;-4892248.6355;3569760.2371;2010-10-25;2019-03-03;2022-05-10;1710.0;
AGUE;STEEL MAST;:;:;;;AGUE;40.5756;351.5531;102.99;4798831.6998;-712643.1913;4126805.5533;2008-10-24;2022-06-01;2022-06-16;4858.0;
AGUI;MAST;:  WALL;:;;;AGUI;27.9039;344.5542;329.127;5437265.7452;-1502353.0304;2967249.808;2010-04-06;2022-06-14;2022-09-03;4159.0;
AHID;SHALLOW FOUNDATION MAST;:  UNKNOWN;:;;;AHID;42.7731;248.9363;1975.542;-1685815.5334;-4377138.7412;4310376.0931;2000-07-07;2022-09-24;2022-10-01;7580.0;
AICI;PILLAR ON THE EDGE OF A ROOF;:  CONCRETE SLAB;:;;;AICI;43.3336;358.9856;121.401;4645961.3276;-82264.0872;4354613.6291;2011-02-18;2022-09-24;2022-10-01;4046.0;
AIO2;Forced centering device on the top of a;2;CONCRETE;: LIMESTONE, GYPSUM, SALT ROCK, SALT LAKES.;;AIO2;39.0614;358.9408;662.865;4958705.1173;-91678.205;3998026.0257;2019-10-15;2020-11-09;2022-05-10;381.0;
AIRM;:;:                      :;;;;AIRM;37.8065;358.8714;253.966;5044843.5107;-99385.5407;3888655.2468;2013-03-20;2022-09-17;2022-09-25;2914.0;
AJAL;STEEL MAST;1.5;ROOF;0                  :;;AJAL;41.2161;357.7264;884.225;4801696.4283;-190640.494;4181085.919;2007-05-10;2022-09-17;2022-09-25;5396.0;
AL20;STEEL MAST;:;:;;;AL20;34.7103;272.3373;131.934;214061.0444;-5244534.6508;3611570.8962;2006-08-06;2018-07-19;2022-05-10;4155.0;
AL30;STEEL MAST;:;:;;;AL30;33.5324;273.1466;148.522;292139.8916;-5314188.1607;3503407.902;2006-08-06;2022-09-21;2022-10-01;5790.0;
AL35;BRACED STEEL TUBING MOUNTED TO;6.0;CONCRETE;3.6                :;;AL35;33.1651;273.2432;146.342;302364.2331;-5336041.5313;3469382.6792;2010-03-21;2022-09-24;2022-10-01;4541.0;
AL40;STEEL MAST;:  Building is constructed of reinforced c:                      :;;;;AL40;32.9627;273.9937;210.972;373091.4955;-5343896.4562;3450601.9863;2007-01-01;2012-10-10;2022-05-10;2077.0;
AL50;STEEL MAST, PRESTRESSED CONCRETE;:;: CLAY;;;AL50;33.168;272.4985;97.932;232977.8123;-5339307.0876;3469621.2153;2006-08-06;2022-09-19;2022-10-01;5849.0;
AL60;STEEL MAST;:  Building is constructed of reinforced c:                      :;;;;AL60;32.4114;273.7295;44.76;350579.9721;-5378369.9145;3399054.078;2007-01-06;2022-09-24;2022-10-01;5617.0;
AL62;STEEL MAST;4;Building is constructed of block with;1.2                :;;AL62;32.1482;274.3132;140.814;406538.584;-5390144.1192;3374427.55;2010-07-15;2022-09-24;2022-10-01;4227.0;
AL70;STEEL MAST;:;:;;;AL70;31.7827;274.0348;141.969;381854.5932;-5413454.9962;3340052.5249;2006-08-06;2013-11-05;2022-05-10;2526.0;
AL76;BRACED STEEL TUBING MOUNTED TO;6.5;CONCRETE;3.65;SANDY CLAY;AL76;31.875;274.7743;100.122;451235.163;-5402665.0981;3348720.7104;2011-03-19;2022-09-24;2022-10-01;4166.0;
AL81;BRACED STEEL TUBING MOUNTED TO;6.5;CONCRETE;3.7;SANDY CLAY;AL81;32.5757;271.8182;21.109;170701.2209;-5377264.7444;3414412.9187;2011-05-12;2022-09-24;2022-10-01;4100.0;
AL82;STEEL MAST;5.5;Building is constructed of brick with;1.2                :;;AL82;32.2574;272.3742;25.767;223651.3992;-5394263.1381;3384621.1689;2010-08-18;2022-09-24;2022-10-01;4371.0;
AL84;BRACED STEEL TUBING MOUNTED TO;6.3;CONCRETE;3.6                :;;AL84;31.7004;272.2108;111.475;209536.5387;-5427642.0712;3332268.8118;2010-06-26;2022-09-24;2022-10-01;4426.0;
AL90;STEEL MAST;:  Building is constructed hurricane resis:                      :;;;;AL90;30.6908;271.9683;-17.323;188546.0799;-5486311.792;3236456.3725;2007-02-10;2022-09-24;2022-10-01;5569.0;
AL92;BRACED STEEL TUBING MOUNTED TO;6.5;CONCRETE;3.7;SANDY CLAY;AL92;30.9164;272.2243;60.935;212564.7468;-5472685.2976;3257975.7046;2010-07-07;2022-09-24;2022-10-01;4336.0;
ALA1;STEEL MAST;8;Building has brick facade with;0.6                :;;ALA1;32.5989;274.4961;184.104;421642.7977;-5362176.5495;3416663.326;2010-07-15;2022-09-24;2022-10-01;4420.0;
ALAC;STEEL MAST;3;CONCRETE BLOCK;2;CONGLOMERATE;ALAC;38.3389;359.5188;60.332;5009051.1878;-42072.183;3935057.7358;1998-03-06;2022-09-17;2022-09-25;8614.0;
ALAM;PERMANENT STATION UNSPECIFIED;:  UNKNOWN;:;;;ALAM;37.358;244.8415;1090.005;-2158287.5105;-4595239.5485;3849706.7276;1999-06-13;2022-09-24;2022-10-01;5100.0;
ALAN;STEEL MAST;11;Building is constructed of reinforced;1                  :;;ALAN;31.3074;273.516;85.275;334509.404;-5444166.2112;3295102.8279;2010-07-09;2022-09-24;2022-10-01;4405.0;
ALAS;STEEL MAST;6.5;Building is constructed of concrete;1.8                :;;ALAS;33.667;274.1693;203.136;386348.3584;-5299929.4604;3515878.0717;2010-08-18;2022-09-24;2022-10-01;4398.0;
ALAU;STEEL MAST;194.96;ROOF;:;;ALAU;32.6081;274.5197;193.557;423808.2726;-5361456.9525;3417536.3453;2009-01-01;2010-02-24;2022-05-10;395.0;
ALBA;Steel tower on a concrete block;3.0;Concrete;: CONGLOMERATE;;ALBA;38.9779;358.1436;751.759;4962848.0483;-160854.1142;3990884.4508;2002-07-10;2022-09-17;2022-09-25;7258.0;
ALBE;STEEL MAST;6.1;Building is constructed of concrete;1.8                :;;ALBE;34.4754;272.1354;226.453;196138.4369;-5260118.2601;3590172.8887;2010-08-01;2022-09-24;2022-10-01;4337.0;
ALBL;:;:                      :;;;;ALBL;43.6766;266.6703;371.527;-268376.6003;-4612834.9573;4382427.3777;2013-06-29;2015-03-07;2022-05-10;601.0;
ALBO;PILLAR;0.3;CONCRETE BLOCK;: ANDESITE/BASALT;;ALBO;35.9398;356.9658;62.235;5162721.8184;-273659.8422;3722826.1442;2015-11-21;2022-09-17;2022-09-25;1912.0;
ALBU;STEEL MAST;6.1;Building is constructed of reinforced;1                  :;;ALBU;32.0816;271.7668;16.87;166780.6188;-5406697.8099;3368114.5821;2010-12-11;2022-09-24;2022-10-01;4080.0;
ALC2;BASE ANCHORED TO ROOF;0.0;ROOF;:;;ALC2;41.0569;359.856;391.842;4816720.3064;-12101.5725;4167450.9313;2009-07-10;2019-12-31;2022-05-10;2859.0;ALCA
ALC5;PILLAR;1.0;CONCRETE BLOCK;: CONGLOMERATE/SANDSTONE BEDROCK;;ALC5;41.0579;359.8547;397.639;4816654.5162;-12214.8779;4167534.9582;2016-08-24;2022-09-17;2022-09-25;2106.0;ALC1
ALC6;STEEL MAST;:;:;;;ALC6;33.1046;273.2494;127.916;303156.3399;-5339658.6331;3463747.8887;2009-01-01;2010-01-13;2022-05-10;355.0;ALCA
ALCE;STEEL MAST;7;Building is constructed of brick;1.2                :;;ALCE;32.946;272.8494;56.237;266336.5636;-5351156.7004;3448966.1772;2010-06-30;2022-09-24;2022-10-01;4437.0;
ALCL;STEEL MAST;11;Building is constructed of brick and bl:   1                  :;;;ALCL;32.8399;273.3702;167.657;315346.4567;-5354985.4475;3439149.141;2010-06-30;2022-09-24;2022-10-01;4394.0;
ALCN;STEEL MAST;7.3;Building is constructed of concrete;1                  :;;ALCN;34.1631;274.3414;164.908;399936.6007;-5268100.7054;3561518.8532;2010-08-01;2022-09-23;2022-10-01;4407.0;
ALCO;Brass plate with forced centered adapter;0.30;CONCRETE BLOCK;0.50;LIMESTONE,CALCAREOUS CLAY;ALCO;38.698;359.5265;640.121;4984687.2634;-41198.8855;3966606.2061;2005-01-01;2020-11-09;2022-05-10;5488.0;
ALCU;STEEL MAST;10;Building is constructed of brick;1.8                :;;ALCU;34.1799;273.1551;222.83;290732.7505;-5274252.7147;3563095.2305;2010-09-08;2022-09-24;2022-10-01;4326.0;
ALDA;STEEL MAST;:  STEEL MAST ON ROOF;: LIMESTONE/SANDSTONE BEDROCK;;;ALDA;42.7544;357.6681;881.815;4687280.2928;-190876.7826;4308106.8156;2007-12-24;2022-03-11;2022-05-10;4849.0;
ALDE;MAST;:  WALL;:;;;ALDE;27.9848;344.2197;122.407;5424185.3555;-1532872.6096;2975072.6608;2010-04-26;2022-06-14;2022-09-03;4138.0;
ALDI;STEEL MAST;:  The main building was constructed in 19:                      :;;;;ALDI;30.2492;271.922;-19.127;184948.674;-5511274.9934;3194254.9143;2009-05-28;2022-09-24;2022-10-01;4806.0;
ALDO;STEEL MAST;11;Building has brick facade with one;2.7                :;;ALDO;31.2395;274.5598;79.689;433935.5194;-5441059.8114;3288666.4898;2010-07-21;2022-09-24;2022-10-01;4422.0;
ALDS;STEEL MAST;7.6;Building is constructed of concrete;1.8                :;;ALDS;34.1482;272.5951;226.256;239260.4359;-5278817.5716;3560187.8691;2010-11-25;2022-09-24;2022-10-01;4289.0;
ALEB;STEEL MAST;10;Building is constructed of concrete;1                  :;;ALEB;31.0915;272.9444;13.503;280806.4531;-5459556.6582;3274587.867;2011-01-01;2021-05-27;2022-05-10;3678.0;
ALEF;BUILDING WALL;:;:;;;ALEF;29.6918;264.3649;5.592;-544498.9092;-5518464.5912;3140747.0629;2014-04-04;2022-09-24;2022-10-01;3094.0;
ALFA;STEEL MAST;9.7;Building is constructed of concrete;1.8                :;;ALFA;33.6852;272.1707;89.179;201229.5772;-5308965.3964;3517495.8633;2010-06-30;2022-09-24;2022-10-01;4352.0;
ALFO;BRACED STEEL TUBING MOUNTED TO;6.5;CONCRETE;3.7;SANDY CLAY;ALFO;30.417;272.3249;3.03;223318.0717;-5500471.2912;3210320.3244;2010-03-21;2022-09-24;2022-10-01;4539.0;
ALG2;20 cm diameter stainless steel cylinder;2.70;exposed bedrock;4.00;Bedrock;ALG2;45.9552;281.9291;202.219;918176.109;-4346107.2742;4561936.2578;2010-10-15;2022-09-18;2022-10-01;3253.0;
ALG3;20 cm diameter stainless steel cylinder;2.10;exposed bedrock;4.00;Bedrock;ALG3;45.9548;281.9273;207.321;918043.2102;-4346175.1833;4561905.6596;2010-05-21;2022-09-24;2022-10-01;4396.0;
ALGC;PILLAR/STEEL MAST;0;ROOF;:;;ALGC;36.111;354.5558;117.164;5135570.4341;-489449.3869;3738222.0045;2006-03-22;2015-12-12;2022-05-10;3328.0;
ALGO;Concrete Pier;2.00;Exposed bedrock;1.50;Bedrock;ALGO;45.9558;281.9286;200.897;918129.4502;-4346071.2523;4561977.8346;1994-01-01;2022-09-24;2022-10-01;10253.0;
ALH1;STEEL MAST;6.1;Building is constructed of concrete;1                  :;;ALH1;34.1333;271.9981;132.693;184273.7614;-5281872.697;3558768.8095;2010-09-01;2012-07-04;2022-05-10;670.0;
ALHC;STEEL MAST;7.3;Building is constructed of brick;1                  :;;ALHC;33.5237;274.3651;256.558;405133.2686;-5307389.7775;3502670.9271;2010-10-16;2022-09-24;2022-10-01;4325.0;
ALHL;STEEL MAST;8.2;Building is constructed of concrete;Varies fro         :;;ALHL;33.8876;273.602;330.739;333010.125;-5290024.3382;3536286.5089;2010-08-01;2022-09-24;2022-10-01;4334.0;
ALIA;STEEL MAST ANCHORED TO LEDGE;1.0;ROOF;:;;ALIA;40.6709;359.2968;1169.257;4845013.6599;-59465.3374;4135530.5686;2010-03-31;2019-12-31;2022-05-10;2466.0;
ALJA;STEEL MAST;10;Building is constructed of brick and;1.8                :;;ALJA;33.8319;272.7224;84.303;251912.9815;-5297746.6459;3531019.6421;2010-09-11;2022-09-24;2022-10-01;4153.0;
ALLA;BRACED STEEL TUBING MOUNTED TO;4.6;CONCRETE;3.1                :;;ALLA;32.9174;274.5995;237.154;429792.088;-5342396.8315;3446401.7582;2010-08-01;2022-09-24;2022-10-01;4360.0;
ALLG;STEEL MAST on side of bldg.;5;Side of Brick Building;:;;ALLG;39.6539;281.2693;174.553;960972.6393;-4822645.3582;4048582.1512;2009-02-06;2017-09-09;2022-05-10;3082.0;
ALM1;PILLAR;0.3;ROOF;: ANTHROPIC FILLING;;ALM1;36.8322;357.515;54.497;5106413.1333;-221608.8197;3802540.409;2018-11-23;2022-06-22;2022-07-03;1269.0;
ALME;STEEL MAST;3;CONCRETE BLOCK;3;LIMESTONE;ALME;36.8525;357.5406;127.5;5105220.0839;-219278.4736;3804387.161;1999-12-04;2022-09-17;2022-09-25;8035.0;
ALMJ;STEEL MAST;9.75;Building is constructed of brick;1                  :;;ALMJ;31.029;271.7703;70.115;168990.3767;-5467784.7985;3268683.4802;2011-01-03;2022-09-24;2022-10-01;3957.0;
ALMO;PILLAR;0.5;CONCRETE BLOCK;2;CLAY/LIMESTONE/CLAY;ALMO;38.7055;355.8198;743.351;4971155.3593;-363336.0208;3967322.8969;2013-06-26;2022-09-17;2022-09-25;3306.0;
ALMR;PILLAR/STEEL MAST;0;ROOF;:;;ALMR;36.8627;357.5591;198.796;5104673.7838;-217597.5697;3805329.9352;2006-03-15;2017-11-02;2022-05-10;3946.0;
ALMZ;REINFORCED CONCRETE PILLAR;4;CONCRETE BLOCK;: SANDROCK, MARGES AND GRAVEL;;ALMZ;41.5031;357.461;1012.138;4779809.3457;-211948.033;4205102.8067;2018-06-29;2022-09-17;2022-09-25;1379.0;
ALNB;STEEL MAST;6;Building is constructed of concrete;1.8                :;;ALNB;31.3775;274.084;106.902;388167.5975;-5436568.1694;3301753.7491;2010-07-17;2022-09-24;2022-10-01;4411.0;
ALNC;STEEL MAST;6;Building is constructed of reinforced;1                  :;;ALNC;34.6813;272.6905;156.779;246479.3828;-5244967.3887;3608936.2236;2010-07-10;2022-05-31;2022-06-20;4286.0;
ALPP;Wyatt/Agnew drilled-braced;:;: Sediments;;;ALPP;34.8245;241.3052;918.073;-2517069.6931;-4598513.0017;3622424.5136;2001-08-07;2022-09-24;2022-10-01;6679.0;
ALRE;STEEL MAST;7;Building is constructed of brick;1                  :;;ALRE;31.4113;272.7658;85.245;262901.9681;-5442090.3528;3304942.062;2010-08-25;2022-09-24;2022-10-01;4163.0;
ALSA;STEEL MAST;1;ROOF;0                  :;;ALSA;42.8915;357.8356;584.274;4677251.0017;-176770.5939;4319079.7973;2008-05-16;2022-09-17;2022-09-25;5168.0;
ALSE;STEEL MAST;6;Building is constructed of concrete;1.8                :;;ALSE;32.4474;272.9882;29.748;280860.6153;-5380301.8056;3402419.9779;2010-09-11;2022-09-24;2022-10-01;4243.0;
ALTA;STEEL MAST;6;Building is constructed of concrete;1                  :;;ALTA;33.4235;273.8788;148.589;360477.8072;-5316665.5562;3493337.5549;2010-08-26;2022-09-24;2022-10-01;4314.0;
ALTH;shallow rod/braced antenna mount;:;:;;;ALTH;36.8896;239.3302;18.788;-2605214.3921;-4392960.6279;3807613.1334;2010-09-27;2022-09-24;2022-10-01;3820.0;
ALTU;STEEL MAST;7.7;Building addition where antenna is loca:   0.6                :;;;ALTU;31.8002;274.0457;141.122;382806.2767;-5412364.6696;3341697.4647;2013-09-20;2022-09-24;2022-10-01;3042.0;
ALUT;PERMANENT STATION UNSPECIFIED;:  UNKNOWN;:;;;ALUT;40.5839;248.3798;2823.994;-1788072.0529;-4511503.4282;4129277.7584;2005-10-07;2020-01-05;2022-05-10;5007.0;
AMAR;STEEL MAST;:;:;;;AMAR;38.2087;352.7721;266.318;4978465.6539;-631387.7344;3923837.1353;2008-03-19;2022-06-01;2022-06-16;5052.0;
AMC2;unknown;:;:;;;AMC2;38.8031;255.4754;1911.378;-1248596.1223;-4819428.2054;3976505.9986;1998-10-21;2018-04-04;2022-05-10;6997.0;
AMC4;:;:                      :;;;;AMC4;38.8031;255.4754;1911.388;-1248596.4018;-4819428.2044;3976505.9291;2018-07-16;2022-09-24;2022-10-01;1328.0;
AME4;"10' x 2"" Galvanized Pipe";19;Galvanized Platform Railing;40;BEDROCK;AME4;29.4496;268.6619;-15.773;-129804.8922;-5556978.8003;3117382.3321;2015-05-05;2022-09-17;2022-09-25;2485.0;AMER
AMES;SHALLOW FOUNDATION TOWER;:;:;;;AMES;41.9831;266.3164;288.216;-305069.6481;-4738656.937;4244403.9514;2014-07-20;2016-04-05;2022-05-10;609.0;
AMHT;STEEL MAST;6.00;CONCRETE BLOCK;1.00;PIT RUN GRAVEL;AMHT;45.8319;295.8119;36.816;1938383.1226;-4007604.9655;4552275.4012;2015-09-23;2022-09-24;2022-10-01;2556.0;
AMU1;STEEL MAST;1.50;STEEL MAST ON ROOF;: LIMESTONE/SANDSTONE BEDROCK;;AMU1;43.0562;356.9964;299.276;4661499.6157;-244591.3845;4332269.7316;2007-12-23;2022-03-05;2022-05-10;4809.0;AMUR
ANA1;SHALLOW DRILLED-BRACED;1;:;Bedrock;;ANA1;34.015;240.6365;22.447;-2595092.2662;-4612420.4829;3547838.8527;2002-05-11;2022-09-24;2022-10-01;7173.0;
AND2;PILLAR/STEEL MAST;0;ROOF;:;;AND2;38.0404;355.9702;284.235;5017457.7421;-353478.4786;3909148.7046;2020-01-08;2022-09-17;2022-09-25;889.0;
ANDS;Steel Mast;3.6;Concrete;4.0;Undifferentiated Silurian;ANDS;41.5962;272.8683;163.013;239045.9728;-4771025.4854;4212280.3821;2007-02-20;2021-12-14;2022-05-10;3759.0;
ANDU;PILLAR/STEEL MAST;0;ROOF;:;;ANDU;38.0404;355.9697;283.635;5017453.1944;-353521.6938;3909149.6475;2007-07-25;2019-08-26;2022-05-10;4265.0;
ANG5;STEEL TOWER;:;:;;;ANG5;29.3015;264.5149;-9.253;-532087.0925;-5541064.8954;3103079.3279;2003-06-12;2019-07-09;2022-05-10;5149.0;
ANG6;STEEL TOWER;:;:;;;ANG6;29.3016;264.5151;-9.193;-532066.3713;-5541057.682;3103095.7751;2003-06-05;2019-07-09;2022-05-10;5261.0;
ANP5;STEEL TOWER;:;:;;;ANP5;39.0103;283.3908;20.425;1149298.5282;-4827706.9105;3993217.3498;2001-06-21;2018-10-01;2022-05-10;5616.0;
ANP6;STEEL TOWER;:;:;;;ANP6;39.0105;283.3909;21.63;1149308.4318;-4827688.8935;3993238.0682;2001-06-20;2018-09-10;2022-05-10;4439.0;
ANTB;Steel Pin in Rock;:  UNKNOWN;:;;;ANTB;39.8479;242.6291;1647.617;-2254980.3418;-4355714.221;4066088.2182;2004-09-09;2018-09-12;2022-05-10;666.0;
ANTE;Steel Pin in Rock;:  UNKNOWN;:;;;ANTE;40.1459;241.8327;1445.115;-2305188.3959;-4305058.5353;4091315.1484;2004-03-06;2021-08-12;2022-05-10;943.0;
ANTG;STEEL MAST;5.50;CONCRETE BLOCK;1.00;PIT RUN GRAVEL;ANTG;45.6172;297.9894;14.394;2097263.5638;-3946134.5767;4535601.4146;2015-08-06;2022-09-24;2022-10-01;2602.0;
ANTI;MAST;:  WALL;:;;;ANTI;28.4233;345.9861;316.048;5446736.6405;-1359429.0521;3017994.973;2010-05-17;2022-06-14;2022-09-03;4177.0;
ANTV;Steel Pin in Rock;:  UNKNOWN;:;;;ANTV;39.6425;239.7187;1681.061;-2480598.1626;-4248214.2644;4048573.7424;2007-05-02;2016-05-15;2022-05-10;447.0;
AOA1;STEEL MAST;1;ROOF;:;;AOA1;34.1574;241.1697;246.561;-2547880.2031;-4628773.589;3561050.074;1994-09-01;2006-12-20;2022-05-10;3834.0;
AOML;STEEL MAST;:;:;;;AOML;25.7347;279.8378;0.096;982296.7653;-5664607.2263;2752614.4766;1997-11-20;2004-04-04;2022-05-10;2245.0;
APEX;PERMANENT STATION UNSPECIFIED;:  UNKNOWN;:;;;APEX;36.3191;245.0682;761.037;-2169121.1145;-4666190.6823;3757231.6446;1999-03-27;2009-06-23;2022-05-10;3697.0;
AR27;DEEP-DRILLED BRACED;:;:;;;AR27;33.3418;242.6751;32.301;-2448387.7583;-4738604.2158;3485711.6047;2013-12-07;2022-09-24;2022-10-01;2931.0;
AR53;DEEP-DRILLED BRACED;:;:;;;AR53;33.3811;242.5235;111.04;-2459839.8042;-4730042.9265;3489394.2601;2013-12-05;2022-09-24;2022-10-01;3195.0;
ARAC;PILLAR/STEEL MAST;0;ROOF;:;;ARAC;37.8939;353.4346;725.099;5007190.6555;-576288.2681;3896600.8035;2007-05-11;2022-09-17;2022-09-25;4978.0;
ARAS;STEEL TOWER;4.599;CONCRETE BLOCK;: BEDROCK;;ARAS;39.945;358.8984;1321.225;4896737.1884;-94156.5173;4074155.4749;2017-01-17;2020-11-09;2022-05-10;1165.0;
ARBT;STEEL TRUSS;:  4'X4' IN PLACE CONCRETE;1.5;CONGLOMERATE;;ARBT;35.7099;268.3715;91.978;-147353.9749;-5182834.631;3702154.3785;2005-08-09;2022-09-24;2022-10-01;5885.0;
ARCH;Steel Pin in Rock;:  UNKNOWN;:;;;ARCH;38.8804;250.243;1432.008;-1680960.2741;-4680063.6476;3982887.1952;2010-07-29;2020-09-22;2022-05-10;1656.0;
ARCM;STEEL MAST;:  ROOF;:;;;ARCM;33.5424;267.1173;25.543;-267628.1824;-5314759.4904;3504269.4104;2005-08-09;2022-09-24;2022-10-01;6084.0;
ARDH;:;:                      :;;;;ARDH;45.1075;266.8201;253.133;-250137.4888;-4502369.8581;4495968.4873;2009-08-16;2022-09-24;2022-10-01;4432.0;
ARDQ;PILLAR;2.44;CONCRETE;3.05;Sand;ARDQ;34.0801;265.6763;147.636;-398698.7105;-5273357.2557;3553890.6409;2019-03-09;2022-09-24;2022-10-01;1279.0;
ARDU;PILLAR;3;CONCRETE BLOCK;1;CLAY/LIMESTONE/CLAY;ARDU;41.6658;356.2574;844.458;4762207.9922;-311513.521;4218509.2039;2009-07-30;2022-09-17;2022-09-25;4725.0;
ARFY;STEEL TRUSS TOWER;:  3'DIA CONCRETE;1.5                :;;;ARFY;36.1158;265.82;349.603;-376023.4749;-5144995.6601;3738785.1491;2005-08-09;2022-09-24;2022-10-01;6017.0;
ARG1;MAST;:  WALL;:;;;ARG1;27.761;344.3186;67.838;5437937.4975;-1526630.2661;2953126.9047;2010-07-14;2022-06-14;2022-09-03;4068.0;ARGU
ARGS;PILLAR;2.44;CONCRETE;3.05;SAND;ARGS;34.0682;266.8838;69.334;-287518.4906;-5281261.1994;3552754.4063;2018-06-22;2022-09-24;2022-10-01;1548.0;
ARGU;PERMANENT STATION UNSPECIFIED;:  UNKNOWN;:;;;ARGU;36.05;242.4781;1791.338;-2386308.6842;-4579773.0394;3733733.8088;1999-03-28;2011-07-24;2022-05-10;3897.0;
ARHP;STEEL MAST;:  ROOF;:;;;ARHP;33.6961;266.3994;84.484;-333601.0133;-5301621.2679;3518493.8668;2005-08-09;2022-09-24;2022-10-01;5922.0;
ARHR;STEEL TRUSS TOWER;:  4'X4' IN PLACE CONCRETE;1.5;CONGLOMERATE;;ARHR;36.1842;266.9698;332.327;-272465.1386;-5147017.5567;3744907.474;2005-08-09;2022-09-24;2022-10-01;5843.0;
ARIB;STEEL MAST;2.5;MAST SCREW ANCHORED TO BUILDING WALL;0                  :;;ARIB;42.9351;358.7379;1037.427;4676495.348;-103032.7995;4322929.1765;2009-12-01;2022-09-17;2022-09-26;4394.0;
ARJB;Reinforced Concrete Pillar;2.1;Reinforced Concrete;4.5;CLAY;ARJB;35.8479;269.2528;61.797;-67497.6353;-5175508.7;3714563.6489;2013-09-02;2022-09-24;2022-10-01;3250.0;
ARLN;BLDING MOUNT 2-1/2 STEEL PIPE W/SCIGN MOUNT;:  ODOT MAINTENANCE BUILDING CONC BLOCK VI:   Spread footing (2 t:;;;;ARLN;45.7082;239.8167;120.38;-2243186.2755;-3856769.8994;4542744.9062;2007-12-19;2022-06-07;2022-06-20;4504.0;
ARLR;STEEL TOWER;:  CONCRETE PILLARS;:;;;ARLR;34.6726;267.6174;73.224;-218301.6716;-5246693.4162;3608099.4873;2005-08-09;2022-09-24;2022-10-01;6140.0;
ARM1;Wyatt/Agnew drilled-braced;:;: Sediments;;;ARM1;35.2013;241.0896;76.817;-2522429.755;-4567409.6426;3656178.1572;2000-06-01;2022-09-24;2022-10-01;6365.0;
ARM2;Wyatt/Agnew drilled-braced;:;: Sediments;;;ARM2;35.2013;241.0894;76.813;-2522440.2542;-4567403.2749;3656178.8568;2002-02-02;2022-09-24;2022-10-01;6769.0;
ARM3;Reinforced Concrete pillar;2.50;Reinforced Concrete;4.11;CLAY;ARM3;36.3692;267.6269;227.718;-212916.3827;-5137582.7507;3761395.8748;2010-11-03;2022-09-24;2022-10-01;4291.0;
ARMH;Reinforced Concrete pillar;2.44;Reinforced Concrete;4.11;Clay;ARMH;36.3528;267.6177;233.126;-213786.6019;-5138633.1853;3759930.38;2006-08-29;2008-11-29;2022-05-10;736.0;
ARML;DEEP-DRILLED BRACED;:;:;;;ARML;35.9173;270.1971;50.033;17789.9923;-5171398.1673;3720791.787;2018-01-26;2022-09-24;2022-10-01;1686.0;
ARMO;PILLAR;2.134;CONCRETE;3.05;CLAY;ARMO;33.5946;268.1868;52.671;-168277.3064;-5315654.5289;3509104.5767;2017-02-23;2022-09-24;2022-10-01;1999.0;
ARMY;Steel Pin in Rock;:  UNKNOWN;:;;;ARMY;38.4977;241.5618;1822.02;-2380889.9682;-4396350.3102;3949964.9467;2005-09-23;2021-04-06;2022-05-10;706.0;
ARNG;SHALLOW-DRILLED BRACED;:;:;;;ARNG;43.667;247.3774;1556.22;-1777983.3866;-4266583.977;4382478.0711;2005-06-03;2019-09-09;2022-05-10;4267.0;
ARP7;STEEL TOWER;:;:;;;ARP7;27.8384;262.941;-16.428;-693606.198;-5601311.9575;2960669.0468;1996-01-12;2017-08-20;2022-05-10;7375.0;
ARP8;STEEL TOWER;:;:;;;ARP8;27.8384;262.9408;-16.401;-693632.9432;-5601307.9149;2960670.4779;1996-05-21;2017-08-25;2022-05-10;4572.0;
ARPB;PILLAR;2.54;CONCRETE;1.22               :;;ARPB;34.1936;268.0858;36.045;-176409.7921;-5278300.4763;3564252.7498;2015-12-10;2022-09-24;2022-10-01;2426.0;
ARPG;STEEL MAST;:  ROOF;:;;;ARPG;36.0591;269.4812;68.42;-46741.175;-5161984.2988;3733536.516;2005-08-09;2022-09-24;2022-10-01;6136.0;
ARRD;STEEL MAST;:;:;;;ARRD;38.9829;350.9206;176.525;4902454.6306;-783441.5126;3990952.2327;2014-06-26;2022-06-01;2022-06-16;2645.0;
ARRV;PILLAR;2.134;CONCRETE;3.05;BEDROCK;ARRV;35.3063;266.8691;89.787;-284610.9477;-5203157.0813;3665701.8583;2016-09-09;2022-09-24;2022-10-01;2016.0;
ARSP;STEEL MAST;1.5;ROOF;0                  :;;ARSP;40.2067;354.9172;638.195;4859224.0172;-432201.1982;4095956.6452;2008-03-13;2022-09-17;2022-09-26;5241.0;
ARTE;Steel Pin in Rock;:  UNKNOWN;:;;;ARTE;38.9999;240.5911;1638.3;-2437816.981;-4324853.7565;3993341.4276;2007-05-04;2022-07-26;2022-08-05;1033.0;
ARUF;STEEL MAST;1.50;ROOF;: MORAINIC DEPOSITS;;ARUF;43.0995;359.5689;482.018;4664623.7463;-35100.312;4335912.8214;2014-03-13;2022-09-24;2022-10-01;3109.0;
ARWY;STEEL MAST;6;BUILDING;1.067;CLAY;ARWY;35.2532;269.1986;54.765;-72933.4073;-5213798.5478;3660873.3519;2015-08-28;2022-09-24;2022-10-01;2524.0;
ASBU;SHALLOW FOUNDATION MAST;:;: CINDER CONE;;;ASBU;43.8206;238.6315;1508.865;-2399895.2394;-3936523.5143;4394773.1393;2011-08-18;2022-09-24;2022-10-01;3412.0;
ASCS;3.5 in. Diameter Steel Mast;13;Side of brick building;.6                 :;;ASCS;42.2553;282.203;549.744;999466.8639;-4621545.4359;4267004.8912;2009-05-13;2022-09-24;2022-10-01;2551.0;
ASHL;BLDING MOUNT 2-1/2 STEEL PIPE W/SCIGN MOUNT;:  ODOT MAINTENANCE BUILDING;:;;;ASHL;42.1807;237.3298;608.727;-2555421.5734;-3985040.4919;4260906.465;2007-04-03;2022-06-07;2022-06-20;4591.0;
ASHM;PERMANENT STATION UNSPECIFIED;:  UNKNOWN;:;;;ASHM;36.3459;243.8606;885.738;-2266246.3786;-4617948.6281;3759701.7213;2005-09-11;2019-09-24;2022-05-10;3856.0;
ASHV;STEEL MAST ATTACHED TO 4-STORY BRICK CHIMNEY;:;:;;;ASHV;35.5995;277.4538;659.154;673609.6948;-5148653.6296;3692529.5116;1997-06-29;2004-03-30;2022-05-10;2357.0;
AST1;CONCRETE PILLAR;:;:;;;AST1;39.3903;242.6916;1760.07;-2265134.3363;-4387045.2038;4027011.8624;2004-07-31;2016-08-04;2022-05-10;4236.0;
AST2;CONCRETE PILLAR;:;:;;;AST2;39.3904;242.6914;1760.3;-2265146.4772;-4387025.5544;4027026.7042;2004-07-31;2016-08-04;2022-05-10;4190.0;
ASTO;STEEL MAST;1.5;ROOF;0                  :;;ASTO;42.4572;353.9453;940.672;4687266.6923;-497176.6782;4283843.8288;2008-03-07;2022-09-17;2022-09-26;4766.0;
ASUB;STEEL MAST ATTACHED TO 4-STORY BRICK BLDG;:;:;;;ASUB;36.2141;278.3181;956.646;745449.0985;-5098561.8027;3747953.1049;2003-01-18;2022-09-24;2022-10-01;6558.0;
ATL1;:;:                      :;;;;ATL1;33.9356;275.4796;295.306;505865.0622;-5273284.6149;3540689.6138;1997-11-15;2002-03-17;2022-05-10;800.0;
AUBN;PILLAR;:  3 Story Building Rooftop;: CLAY;;;AUBN;41.366;274.9456;243.332;413289.7471;-4776162.568;4193173.54;2003-12-05;2022-09-24;2022-10-01;6613.0;
AUBR;Steel Pin in Rock;:  UNKNOWN;:;;;AUBR;35.9372;247.0277;1856.314;-2018402.9979;-4761455.2235;3723639.2296;2011-04-19;2018-09-27;2022-05-10;1799.0;
AULT;BUILDING WALL;:;:;;;AULT;29.9978;264.2553;25.764;-553367.7751;-5500637.9531;3170172.6801;2015-07-22;2022-09-24;2022-10-01;2553.0;
AUT0;MAST;:  WALL;:;;;AUT0;30.3955;262.2648;257.09;-741133.4468;-5456322.8946;3208395.3346;2013-06-04;2022-09-09;2022-09-24;2242.0;
AVCA;PILLAR;1.52;POURED CONCRETE CYLINDER;3.66               :;;AVCA;43.0609;277.3123;200.481;594062.0431;-4629522.4569;4332585.3762;2003-04-10;2022-09-24;2022-10-01;6834.0;
AVI2;STEEL MAST;1.5;ROOF;0                  :;;AVI2;40.6638;355.3218;1206.511;4829770.3566;-395227.9445;4134964.0033;2014-08-01;2022-09-17;2022-09-26;2900.0;
AVIL;STEEL MAST;1.5;ROOF;0;Granite;AVIL;40.6511;355.3207;1176.885;4830657.2814;-395397.3062;4133873.1936;2006-01-19;2015-12-08;2022-05-10;3436.0;
AVIS;STEEL MAST;:;:;;;AVIS;39.0566;352.1105;270.074;4912635.2964;-680765.5043;3997369.6334;2008-11-06;2021-08-11;2022-05-10;4569.0;
AVL1;PILLAR;:  ROOF;: BEDROCK;;;AVL1;43.5579;354.0869;78.445;4604888.8405;-476930.1862;4372677.55;2019-04-18;2022-09-24;2022-10-01;1064.0;
AVLS;STEEL MAST;:  ROOF;:;;;AVLS;43.566;354.0942;151.074;4604378.9786;-476286.8612;4373385.8586;2010-01-30;2019-05-02;2022-05-10;3260.0;
AVRY;Wyatt/Agnew drilled-braced;:;: SEDIMENTS, FINE ALLUVIAL;;;AVRY;34.4683;242.846;888.917;-2402751.4458;-4684501.9141;3589896.4936;1999-03-11;2022-09-24;2022-10-01;8450.0;
AWES;STEEL MAST;30;Roof;1                  :;;AWES;30.1003;269.017;-10.312;-94742.0342;-5521868.8053;3179990.0508;2010-05-16;2022-09-24;2022-10-01;4440.0;
AYOR;Stainless steel mount on top of steel tower;1.050;CONCRETE;: LIMESTONE, GYPSUM, SALT ROCK, SALT LAKES.;;AYOR;39.0613;358.9408;661.873;4958705.4938;-91680.4513;3998023.9366;2007-05-28;2019-09-22;2022-05-10;4435.0;
AZAH;STEEL MAST;20;ROOF;:;;AZAH;33.7745;248.1081;711.873;-1979047.6118;-4925047.9507;3526074.5969;2005-04-12;2008-07-05;2022-05-10;1171.0;
AZAM;STEEL MAST;7;ROOF PARAPET WALL;1                  :;;AZAM;31.73;248.9286;928.938;-1952484.4765;-5067522.2897;3335496.2051;2011-03-05;2022-09-24;2022-10-01;3543.0;
AZBH;STEEL MAST;3.7;ROOF PARAPET WALL;0.5                :;;AZBH;35.1075;245.395;151.685;-2174939.952;-4749388.7934;3647716.5937;2009-01-01;2022-09-24;2022-10-01;4971.0;
AZBK;STEEL BOLT;:  ROOF;: CONGLOMERATE/SAND;;;AZBK;33.3695;247.3799;242.896;-2050884.8806;-4922062.7906;3488393.6327;2004-11-16;2021-10-03;2022-05-10;5074.0;
AZBR;STEEL MAST;7.5;ROOF PARAPET WALL;0.61               :;;AZBR;32.259;249.1986;758.395;-1917501.2409;-5047473.5382;3385156.6808;2012-05-15;2022-09-24;2022-10-01;3265.0;
AZCC;STEEL MAST ATTACHED TO 2-STORY BRICK BLDG;:;:;;;AZCC;31.3901;250.0749;1473.16;-1857599.5444;-5124551.9558;3303661.3028;2004-01-08;2005-03-15;2022-05-10;397.0;
AZCL;STEEL MAST;:  CONCRETE CYLINDER;:;;;AZCL;32.9837;248.4846;407.167;-1964244.8747;-4982606.4983;3452660.5359;2005-05-23;2013-04-01;2022-05-10;2605.0;
AZCN;STEEL MAST;:;: SOIL;;;AZCN;36.8398;252.089;1861.25;-1572187.6594;-4864404.621;3804295.1372;1999-05-10;2011-08-19;2022-05-10;4110.0;
AZCO;STEEL MAST;:;:;;;AZCO;31.3911;250.0709;1473.17;-1857944.1998;-5124370.3788;3303748.5727;2005-03-16;2018-12-10;2022-05-10;4518.0;
AZDS;STEEL MAST;3.48;ROOF PARAPET WALL;1.2                :;;AZDS;35.5331;245.6408;870.667;-2143529.182;-4734334.8596;3686666.1846;2012-02-10;2022-09-24;2022-10-01;3634.0;
AZFL;STEEL MAST;14.2;ROOF PARAPET WALL;2;BEDROCK;AZFL;35.1773;248.343;2088.01;-1926745.5277;-4852285.2646;3655166.0596;2009-02-19;2022-09-19;2022-10-01;4645.0;FLAG
AZFM;STEEL MAST;19.3;ROOF PARAPET WALL;1.0                :;;AZFM;34.8522;245.4049;119.882;-2180866.8995;-4764502.0699;3624495.2176;2009-05-13;2022-03-14;2022-05-10;4547.0;FORT
AZGB;STEEL MAST;:  ROOF;:;;;AZGB;33.3954;249.2285;1097.83;-1890727.9312;-4984856.422;3491254.6182;2003-04-20;2022-09-24;2022-10-01;6756.0;
AZGV;TOWER;5.2;:   1.2                :;;;AZGV;35.2544;245.7457;867.565;-2142210.6593;-4754585.7614;3661448.9257;2010-09-16;2022-09-24;2022-10-01;4205.0;
AZKR;SHORT STEEL MAST;:  ROOF;:;;;AZKR;33.059;249.0897;560.556;-1909937.2607;-4998941.1576;3459746.5037;2005-05-23;2013-07-09;2022-05-10;2575.0;
AZLH;STEEL MAST;5.8;ROOF PARAPET WALL;1                  :;;AZLH;34.5083;245.6529;172.515;-2169193.7555;-4793713.3341;3593150.9445;2010-08-29;2022-09-24;2022-10-01;4051.0;
AZM1;ALUMINUM MAST - 3 INCH;7.3;CONCRETE;0.75               :;;AZM1;33.0284;247.9445;340.212;-2010095.5018;-4961308.9;3456786.539;2011-11-30;2022-09-17;2022-09-26;3686.0;AZMP
AZMO;THREADED BOLT;:  ROOF;:;;;AZMO;33.0595;247.7393;375.583;-2027145.3323;-4952366.3763;3459697.6987;2005-05-23;2007-10-14;2022-05-10;770.0;
AZPA;STEEL MAST;5.4;ROOF PARAPET WALL;1                  :;;AZPA;33.6927;247.7221;371.967;-2013985.3353;-4915999.2333;3518347.5479;2011-03-03;2022-09-24;2022-10-01;3688.0;
AZPE;THREADED ROD;:  ROOF;:;;;AZPE;33.5749;247.7444;316.233;-2014794.7954;-4923438.1715;3507437.5546;2005-05-23;2012-02-03;2022-05-10;2231.0;
AZPG;STEEL MAST;12;ROOF PARAPET WALL;0.5;BEDROCK;AZPG;36.9087;248.5373;1301.98;-1868673.811;-4752978.9951;3810075.5322;2009-01-11;2022-09-24;2022-10-01;4044.0;
AZPS;STEEL MAST;5.84;ROOF PARAPET WALL;0.5                :;;AZPS;34.6086;247.5393;1574.32;-2008249.9578;-4857757.8089;3603104.8864;2009-02-24;2022-09-24;2022-10-01;3750.0;PRES
AZRV;STEEL PIPE;5.3;CONCRETE MASS;1                  :;;AZRV;34.1319;250.719;2110.61;-1745713.2953;-4990272.9749;3559753.7621;2010-10-08;2022-09-24;2022-10-01;3600.0;
AZRY;Wyatt/Agnew drilled-braced;:;: BEDROCK;;;AZRY;33.5401;243.3703;1265.7;-2385740.2089;-4758052.2791;3504738.927;1999-08-24;2022-05-12;2022-06-16;7997.0;
AZSC;THREADED BOLT;:  ROOF;:;;;AZSC;33.4918;248.0774;361.28;-1988064.2962;-4939824.9833;3499775.1744;2004-06-11;2008-07-05;2022-05-10;1474.0;
AZSF;STEEL MAST IN CONCRETE BASE;4.4;:   1.8;CONGLOMERATE;;AZSF;32.802;250.2881;897.015;-1810292.9377;-5052641.3806;3436011.2217;2008-11-20;2022-09-24;2022-10-01;4906.0;
AZST;STEEL MAST;4.91;CONCRETE MASS;1.52               :;;AZST;33.1678;248.3647;485.233;-1970583.5638;-4968183.9845;3469817.7237;2012-01-06;2022-09-24;2022-10-01;3235.0;
AZSV;STEEL TOWER;4.88;CONCRETE PAD POURED ATOP BEDROCK;1.5                :;;AZSV;34.265;248.7595;1465.26;-1912124.8596;-4919431.5374;3571602.6354;2009-11-06;2022-06-21;2022-07-08;3929.0;
AZTP;SHALLOW-DRILLED BRACED;1.6;EXPOSED BED ROCK;1.3;BEDROCK;AZTP;33.4457;248.0624;360.407;-1990411.5324;-4941919.8114;3495508.1604;2009-03-22;2022-09-11;2022-09-26;3196.0;
AZU1;shallow rod/braced antenna mount;1.8;DEEP-DRILLED BRACED;:;;AZU1;34.126;242.1035;144.771;-2472979.1643;-4671338.2457;3558107.7049;1996-07-18;2022-09-13;2022-09-26;8803.0;
AZUP;STEEL MAST;3.59;CONCRETE POURED ATOP, AND PINNED TO, BE:   1.3                :;;;AZUP;33.4809;248.38;591.546;-1962261.4687;-4951053.8015;3498896.2506;2011-01-31;2020-09-17;2022-05-10;2961.0;
AZVA;STEEL MAST;8.1;ROOF PARAPET WALL;1                  :;;AZVA;31.9541;249.2297;1010.16;-1921206.1632;-5065519.4086;3356646.5654;2011-02-16;2022-09-22;2022-10-01;3376.0;
AZWA;STEEL MAST;1.78;CONCRETE;0.61;(BEDROCK);AZWA;33.8593;247.3378;540.673;-2043011.4069;-4893029.423;3533799.9932;2010-01-17;2019-10-29;2022-05-10;2516.0;
AZYC;STEEL MAST;3.48;ROOF PARAPET WALL;1.2                :;;AZYC;34.8793;245.853;541.036;-2142977.0747;-4780163.2445;3627197.4121;2012-02-10;2022-09-24;2022-10-01;3782.0;
AZYU;STEEL MAST;6.6;ROOF PARAPET WALL;1                  :;;AZYU;32.6583;245.4729;36.945;-2231309.5294;-4890029.5963;3422140.4294;2009-02-19;2022-09-24;2022-10-01;4828.0;YUMA
BACO;STEEL MAST;9.42;ROOF;:;;BACO;39.3995;283.3932;126.997;1143198.453;-4801170.1365;4026765.0271;2007-11-19;2022-09-24;2022-10-01;5207.0;
BADJ;CONCRETE PILLAR;2.5;CONCRETE BASE ON THE ROOF;:;;BADJ;38.8937;353.0107;249.936;4934001.2453;-604879.8754;3983295.4927;2010-04-01;2022-09-17;2022-09-26;4402.0;
BAI1;STEEL MAST;:;:;;;BAI1;41.1643;351.966;626.38;4761874.1654;-672122.8733;4176586.6685;2009-01-01;2021-05-25;2022-05-11;4003.0;BAIO
BALD;SHALLOW FOUNDATION MAST;:;:;;;BALD;37.7834;241.0986;2749.44;-2440376.957;-4420481.5173;3888158.074;1999-09-02;2022-09-24;2022-10-01;7764.0;
BAMO;DEEP-DRILLED BRACED;:  UNKNOWN;:;;;BAMO;40.4128;242.7954;1792.47;-2223891.458;-4326376.6882;4114149.9183;2003-02-02;2021-08-27;2022-05-11;6340.0;
BAR1;SHALLOW DRILLED-BRACED;:;: Sediments;;;BAR1;33.4805;240.9703;14.81;-2584163.0369;-4656252.8514;3498534.2332;2002-04-29;2022-09-24;2022-10-01;7268.0;
BARA;STEEL MAST;2.5;STEEL MAST ANCHORED TO BUILDING WALL;: LIMESTONE/SANDSTONE BEDROCK;;BARA;43.0659;357.2889;667.947;4662221.1051;-220770.1274;4333309.2931;2007-07-15;2022-03-05;2022-05-11;4675.0;BRZR
BARD;Forced centering device on top of an inox ma;:  CONCRETE SLAB;:;;;BARD;45.3024;359.9899;155.71;4493872.9069;-789.7285;4511161.0821;2015-02-20;2022-09-24;2022-10-01;2696.0;
BARH;Leveling bracket;:  Concrete;: BEDROCK;;;BARH;44.395;291.7783;6.746;1693644.8918;-4239067.5651;4439567.2196;1998-10-02;2022-09-24;2022-10-01;8170.0;
BARN;STEEL MAST IN CONCRETE BASE;:  CONCRETE CYLINDER;: SOIL;;;BARN;44.0991;288.8404;139.663;1481595.0384;-4342107.8879;4416102.12;2000-05-02;2016-09-04;2022-05-11;5059.0;
BASE;PERMANENT STATION UNSPECIFIED;:;:;;;BASE;42.6058;245.125;1119.198;-1978075.4227;-4266264.1756;4296131.9799;2017-02-19;2020-07-07;2022-05-11;718.0;
BASQ;BLDING MOUNT 9 Pipe,W/SECO MT.;:  BUILDING/MOUNTED TO STEEL I-BEAM;:;;;BASQ;42.4116;242.137;1348.606;-2204665.697;-4170393.5733;4280379.7452;2019-09-01;2022-09-24;2022-10-01;1088.0;
BATM;PERMANENT STATION UNSPECIFIED;:  UNKNOWN;:;;;BATM;36.4035;243.4884;736.988;-2294451.2846;-4599634.5727;3764754.723;2005-09-16;2010-08-26;2022-05-11;1776.0;
BATT;Steel Pin in Rock;:  UNKNOWN;:;;;BATT;40.5159;242.7911;1505.937;-2220717.7701;-4319400.9611;4122682.5239;2004-09-09;2018-09-11;2022-05-11;718.0;
BAYR;PILLAR;1.52;POURED CONCRETE CYLINDER;3.66               :;;BAYR;43.4462;276.1083;148.888;493529.9895;-4611778.1699;4363728.8839;2001-09-01;2022-09-24;2022-10-01;7269.0;
BBDM;Wyatt/Agnew drilled-braced;:;: Sediment;;;BBDM;34.5822;240.0185;204.875;-2627051.827;-4553579.6989;3599919.2442;2000-09-22;2022-09-24;2022-10-01;8009.0;
BBID;PERMANENT STATION UNSPECIFIED;:  UNKNOWN;:;;;BBID;44.185;248.4739;1789.907;-1681418.6866;-4262828.5955;4424106.4478;2002-09-26;2021-09-19;2022-05-11;6736.0;
BBRY;Wyatt/Agnew drilled-braced;:;: SEDIMENTS / COARSE ALLUVIAL;;;BBRY;34.2643;243.1158;2051.072;-2386883.8935;-4708014.1245;3571866.7208;1998-10-23;2022-09-24;2022-10-01;8649.0;
BBUT;Steel Pin in Rock;:  UNKNOWN;:;;;BBUT;41.4388;241.705;1264.932;-2270244.1686;-4217182.7502;4199913.5657;2011-06-30;2016-08-18;2022-05-11;215.0;
BCWR;Wyatt/Agnew drilled-braced;:;: Bedrock;;;BCWR;34.9205;240.5942;1332.942;-2571120.3623;-4561915.0078;3631398.1981;2002-02-06;2022-09-24;2022-10-01;6691.0;
BCYI;PERMANENT STATION UNSPECIFIED;:  UNKNOWN;:;;;BCYI;44.3156;246.5942;2173.36;-1816426.9122;-4196339.9163;4434769.8213;2004-10-29;2020-04-06;2022-05-11;5496.0;
BDSP;Steel Pin in Rock;:  UNKNOWN;:;;;BDSP;37.5182;245.9196;1557.9;-2067188.2807;-4625501.1104;3864113.5958;2010-08-02;2019-11-29;2022-05-11;2117.0;
BEAT;PERMANENT STATION UNSPECIFIED;:  UNKNOWN;:;;;BEAT;37.0399;243.3789;1396.033;-2284553.4406;-4557948.9564;3821772.3081;1999-01-20;2019-09-24;2022-05-11;5988.0;
BEDE;Steel Pin in Rock;:  UNKNOWN;:;;;BEDE;39.8248;240.1717;1573.559;-2440454.3142;-4256398.4882;4064071.2366;2004-03-18;2022-07-16;2022-09-03;1297.0;
BEER;Steel Pin in Rock;:  UNKNOWN;:;;;BEER;35.5581;242.2173;835.385;-2421653.4888;-4596434.3805;3688898.919;2005-08-05;2020-04-26;2022-05-11;416.0;
BEES;Steel Pin in Rock;:  UNKNOWN;:;;;BEES;39.2672;242.2905;2180.924;-2299971.3118;-4379035.8128;4016707.2219;2006-09-07;2021-10-02;2022-05-11;241.0;
BEJ_;ste;:  ROOF;:;;;BEJ_;38.0129;352.1272;305.855;4984362.4424;-689230.2353;3906759.2156;2001-11-09;2022-06-01;2022-06-17;5123.0;
BEJR;REINFORCED CONCRETE PILLAR;3.00;CONCRETE BLOCK;: HETEROGENEUS GRANITOID;;BEJR;40.3959;354.2515;1095.128;4840699.3782;-487304.6266;4112276.2024;2017-11-16;2022-09-17;2022-09-26;1686.0;
BEMT;Wyatt/Agnew drilled-braced;:;: Bedrock;;;BEMT;34.0005;244.0018;1373.663;-2320746.156;-4758616.144;3547263.8357;2001-11-15;2022-09-24;2022-10-01;7410.0;
BEND;BLDING MOUNT;:  BEND CITY HALL;:;;;BEND;44.0572;238.6848;1095.851;-2386593.5766;-3922914.1591;4413420.0195;2005-11-09;2022-09-24;2022-10-01;5774.0;
BEPK;Wyatt/Agnew drilled-braced;:;: Bedrock;;;BEPK;35.8784;241.9259;2471.124;-2435855.4418;-4566920.8028;3718714.7749;2000-09-06;2022-09-24;2022-10-01;7801.0;
BERG;Steel mast with centered screw&levelling mou;:  CONCRETE WALL ON TOP OF BUILDING;: CALCAREOUS CLAY, CLAY, SANDSTONE;;;BERG;40.6115;359.9027;892.802;4849454.0558;-8238.8352;4130349.9218;2012-04-12;2020-11-09;2022-05-11;2902.0;
BERR;Steel Pin in Rock;:  UNKNOWN;:;;;BERR;39.6022;239.5525;1930.891;-2494455.8874;-4243630.5562;4045281.4781;2007-08-18;2011-11-06;2022-05-11;256.0;
BFLD;building mount;:;:;;;BFLD;35.4131;240.9547;108.375;-2526594.8621;-4549605.1125;3675375.8461;2015-12-01;2022-09-24;2022-10-01;2267.0;
BFLO;Steel Pin in Rock;:  UNKNOWN;:;;;BFLO;40.7288;240.1713;1363.653;-2408121.6407;-4199930.6289;4140536.6891;2006-06-09;2019-06-24;2022-05-11;437.0;
BFLT;Steel Pin in Rock;:  UNKNOWN;:;;;BFLT;38.8539;240.3241;1597.102;-2462969.5411;-4322275.2285;3980698.2063;2007-05-25;2021-09-20;2022-05-11;835.0;
BFNY;STEEL PIPE ON BRICK GAUGE BUILDING;:;:;;;BFNY;42.8776;281.1096;145.542;902024.2213;-4593600.6394;4317642.7111;2002-07-26;2022-09-24;2022-10-01;5918.0;
BFSH;:;:                      :;;;;BFSH;35.5911;241.502;791.683;-2477807.7134;-4563941.4281;3691854.8526;2015-12-01;2022-09-24;2022-10-01;2309.0;
BGIS;Wyatt/Agnew drilled-braced;:;:;;;BGIS;33.9671;241.8403;2.833;-2499014.1775;-4668524.8897;3543423.647;1999-04-09;2022-09-24;2022-10-01;8385.0;
BGOH;STEEL PIPE ON BRICK GAUGE BUILDING;:;:;;;BGOH;41.3802;276.3574;210.681;530719.9873;-4763470.2321;4194335.0469;2009-01-02;2022-09-24;2022-10-01;4898.0;
BHIL;Steel Pin in Rock;:  UNKNOWN;:;;;BHIL;39.3786;239.882;1988.866;-2477959.8846;-4271604.5686;4026152.3757;2008-07-26;2021-06-22;2022-05-11;713.0;
BHMA;Steel Mast;:  Concrete Block;:;;;BHMA;26.6899;281.033;-26.051;1091289.3232;-5596982.4621;2847547.4698;2002-06-04;2022-06-18;2022-07-17;869.0;
BIAZ;INOX TRIANGULAR PLATE ON TOP OF AN INOX MAST;:  CONCRETE WALL;:;;;BIAZ;43.472;358.4631;121.393;4634456.18;-124345.2058;4365785.3144;2001-01-31;2022-09-24;2022-10-01;6621.0;
BIGP;Steel Pin in Rock;:  UNKNOWN;:;;;BIGP;37.1678;241.6617;1554.842;-2416107.3071;-4480016.8789;3833189.3774;2005-06-29;2009-08-08;2022-05-11;72.0;
BIGR;PILLAR;1.52;POURED CONCRETE CYLINDER;3.66               :;;BIGR;43.6791;274.5123;284.49;363496.4604;-4606053.6073;4382574.7849;2004-06-30;2022-09-24;2022-10-01;6267.0;
BIGS;Steel Pin in Rock;:  UNKNOWN;:;;;BIGS;39.286;243.1751;1877.829;-2231391.382;-4412632.5437;4018130.9416;2007-10-18;2020-10-22;2022-05-11;485.0;
BIL5;:;:                      :;;;;BIL5;45.9712;252.0035;873.924;-1372156.7853;-4223945.833;4563650.3167;2000-08-25;2016-08-04;2022-05-11;5318.0;
BIL6;:;:                      :;;;;BIL6;45.9712;252.0032;874.688;-1372181.4527;-4223938.0729;4563651.1465;2000-08-25;2016-07-19;2022-05-11;4570.0;
BILL;Wyatt/Agnew drilled-braced;:  DEEP-DRILLED BRACED;9.756;BEDROCK;;BILL;33.5782;242.9354;470.064;-2420420.5573;-4737131.5321;3507827.6573;1997-11-18;2022-09-24;2022-10-01;9000.0;
BIRD;Steel Pin in Rock;:  UNKNOWN;:;;;BIRD;35.9576;244.5709;1523.169;-2219966.5182;-4669113.2365;3725276.8956;2007-04-10;2018-09-13;2022-05-11;145.0;
BKAP;Wyatt/Agnew drilled-braced;:;: Sediments;;;BKAP;35.287;243.9196;252.03;-2291496.016;-4681573.393;3664053.3712;2000-12-13;2022-09-24;2022-10-01;7813.0;
BKLY;antenna mounted on side of Ray's chimney;:  side of building, chimney is filled;:;;;BKLY;37.7978;278.8478;691.342;776242.3314;-4986706.7737;3888158.8571;2004-01-01;2009-06-06;2022-05-11;1762.0;
BKMS;Wyatt/Agnew drilled-braced;:;: ALLUVIAL SILT AND SAND DEPOSITS;;;BKMS;33.9623;241.9053;11.025;-2493861.6982;-4671628.3128;3542981.2483;1998-07-28;2022-09-24;2022-10-01;8730.0;
BKR1;CONCRETE PILLAR;:  CONCRETE CYLINDER;:;;;BKR1;35.1324;240.8905;56.875;-2540415.2403;-4562449.1036;3649921.0172;2004-02-21;2016-08-04;2022-05-11;4326.0;
BKR2;CONCRETE PILLAR;:  CONCRETE CYLINDER;:;;;BKR2;35.1326;240.8907;56.787;-2540394.0066;-4562446.8187;3649938.382;2004-02-21;2016-08-04;2022-05-11;4373.0;
BKS1;STEEL MAST;6.00;CONCRETE BLOCK;1.00;PIT RUN GRAVEL;BKS1;44.5621;296.268;52.298;2014535.7758;-4081848.2474;4452845.2378;2015-07-18;2022-09-17;2022-09-26;2600.0;BKSD
BKVL;CONCRETE PILLAR;:  CONCRETE CYLINDER;:;;;BKVL;28.4738;277.5463;-6.55;736863.6365;-5562275.748;3022761.8291;2003-08-13;2022-09-20;2022-10-01;5807.0;
BLA1;OTHER;:;:;;;BLA1;37.2113;279.5795;605.701;846445.0162;-5015399.7679;3836465.6715;2006-01-26;2022-09-24;2022-10-01;5076.0;
BLAC;Steel Pin in Rock;:  UNKNOWN;:;;;BLAC;39.7965;240.7053;1282.67;-2401585.354;-4280502.4449;4061469.2945;2004-01-30;2022-06-21;2022-07-03;842.0;
BLAN;:;:                      :;;;;BLAN;44.9304;359.4379;55.911;4522878.7342;-44372.4567;4481915.3226;2021-03-29;2022-09-24;2022-10-01;518.0;
BLGU;REINFORCED CONCRETE PILLAR;4.0;GROUND;2;DOLOMITES/LIMESTONE BEDROCK;BLGU;42.9582;359.1993;1649.234;4675865.8805;-65347.1196;4325232.1518;2016-05-15;2022-09-23;2022-10-01;1770.0;
BLIN;Steel Pin in Rock;:  UNKNOWN;:;;;BLIN;37.758;241.496;1856.838;-2410148.142;-4438200.5034;3885379.3613;2005-09-22;2016-09-28;2022-05-11;192.0;
BLKM;PERMANENT STATION UNSPECIFIED;:;:;;;BLKM;42.6131;245.1094;1079.379;-1978986.7362;-4265203.081;4296702.7704;2017-01-16;2020-07-16;2022-05-11;1030.0;
BLKS;PERMANENT STATION UNSPECIFIED;:;:;;;BLKS;42.6118;245.1105;1088.084;-1978950.1984;-4265334.2915;4296602.9649;2017-02-12;2018-05-09;2022-05-11;397.0;
BLKV;CONCRETE PILLAR;:  CONCRETE CYLINDER;: UNKNOWN;;;BLKV;37.206;279.5855;604.797;847028.1646;-5015663.4426;3835993.9016;1999-04-14;2016-11-29;2022-05-11;5564.0;
BLMM;:;:;SOIL;;;BLMM;36.8798;270.0275;98.963;2449.1613;-5108089.4864;3806789.3206;1999-06-15;2011-07-13;2022-05-11;3955.0;
BLNP;PERMANENT STATION UNSPECIFIED;:;:;;;BLNP;44.2458;238.1502;1521.769;-2415548.3618;-3888330.8193;4428758.2307;2013-08-09;2019-09-24;2022-05-11;438.0;
BLOK;PERMANENT STATION UNSPECIFIED;:;:;;;BLOK;42.6161;245.1085;1072.938;-1978958.0192;-4264963.3596;4296942.7526;2017-01-16;2018-05-09;2022-05-11;276.0;
BLOM;0.0381 m DIAMETER STEEL PIPE;5;ATTACHED TO CONCRETE BLOCK;1                  :;;BLOM;40.4956;271.0001;204.854;84783.6112;-4856565.1824;4120124.8794;2009-12-10;2022-06-19;2022-07-03;4305.0;
BLRK;Steel Pin in Rock;:  UNKNOWN;:;;;BLRK;40.7697;240.9067;1237.333;-2352523.8161;-4227819.6517;4143896.9951;2006-07-07;2021-10-24;2022-06-17;307.0;
BLRW;STEEL PIPE;:;: SOIL;;;BLRW;43.2303;269.4692;188.994;-43118.9012;-4654408.2377;4346304.1174;1999-07-28;2010-09-08;2022-05-11;3507.0;
BLSA;Wyatt/Agnew drilled-braced;:;:;;;BLSA;33.7995;241.9713;-23.155;-2493191.6203;-4683355.1062;3527978.5106;2002-12-21;2022-09-24;2022-10-01;6522.0;
BLUM;Steel Pin in Rock;:  UNKNOWN;:;;;BLUM;40.9492;241.9525;1364.662;-2268882.2396;-4258628.5216;4159055.7759;2011-06-30;2021-09-28;2022-05-11;531.0;
BLW2;PERMANENT STATION UNSPECIFIED;:  UNKNOWN;:;;;BLW2;42.7671;250.4422;2215.567;-1570409.9135;-4420523.2054;4310050.2798;1999-10-24;2022-09-24;2022-10-01;7742.0;
BLY1;BLDING MOUNT 2 STEEL PIPE W/SCIGN MOUNT;:  Bly Rural Fire Protection District Stee:                      :;;;;BLY1;42.4068;238.9509;1313.429;-2433211.2679;-4041699.6703;4279965.5644;2011-07-03;2022-09-24;2022-10-01;3503.0;
BLYT;Wyatt/Agnew drilled-braced;:;: SAND;;;BLYT;33.6104;245.2851;85.93;-2223206.7081;-4830299.8156;3510587.6174;1994-01-26;2022-09-24;2022-10-01;9634.0;
BMHL;shallow rod/braced antenna mount;:;: Bedrock;;;BMHL;34.2514;243.947;722.632;-2318199.6402;-4741880.6992;3569942.0777;1999-12-18;2022-09-24;2022-10-01;8273.0;
BMPD;Mast on roof;12.46;:;BEDROCK;;BMPD;32.307;295.2321;16.15;2300224.4392;-4881116.0306;3389261.629;2012-05-18;2020-11-10;2022-05-11;2115.0;
BMRY;Wyatt/Agnew drilled-braced;:;: SEDIMENTS, COARSE ALLUVIAL, UNCONSOLIDATED;;;BMRY;33.9627;243.0153;787.253;-2403175.5467;-4719612.8503;3543453.8801;1999-03-02;2010-05-03;2022-05-11;3875.0;
BNAF;STEEL MAST;:;:;;;BNAF;37.2324;351.8733;333.122;5033635.5028;-718784.9002;3838159.1348;2008-10-21;2022-06-01;2022-06-17;4913.0;
BNFY;:;:                      :;;;;BNFY;30.8484;274.3962;-0.601;420103.4462;-5464505.3927;3251471.5753;2005-05-18;2015-11-02;2022-05-11;3127.0;
BOBS;Steel Pin in Rock;:  UNKNOWN;:;;;BOBS;39.448;243.018;2185.46;-2238405.9262;-4396539.2641;4032239.6601;2007-10-18;2020-10-21;2022-05-11;557.0;
BOCA;Steel Pin in Rock;:  UNKNOWN;:;;;BOCA;39.4109;239.955;2058.924;-2471394.0231;-4272834.6699;4028973.9697;2005-10-28;2022-09-24;2022-10-01;1266.0;
BODI;Steel Pin in Rock;:  UNKNOWN;:;;;BODI;38.2165;241.031;2468.918;-2431145.5462;-4391503.4009;3925879.3722;2005-09-23;2021-07-12;2022-05-11;613.0;
BOIL;Steel Pin in Rock;:  UNKNOWN;:;;;BOIL;40.2723;240.6177;1273.778;-2391449.1531;-4247200.5054;4101922.265;2006-05-12;2022-09-06;2022-09-24;792.0;
BOMG;SHALLOW FOUNDATION MAST;:;:;;;BOMG;33.3646;244.2703;-84.205;-2314878.6407;-4803587.7306;3487757.9982;2009-02-07;2022-09-24;2022-10-01;4944.0;
BONI;Steel Pin in Rock;:  UNKNOWN;:;;;BONI;37.225;242.8232;1290.342;-2322945.4378;-4524472.0735;3838086.9497;2005-09-09;2020-10-15;2022-05-11;464.0;
BONT;Steel Pin in Rock;:  UNKNOWN;:;;;BONT;39.5311;239.5718;2319.157;-2495724.0714;-4249066.3313;4039441.6311;2007-08-18;2017-09-14;2022-05-11;400.0;
BOOM;Steel Pin in Rock;:  UNKNOWN;:;;;BOOM;39.4756;240.0441;2106.226;-2462489.3036;-4272748.2432;4034551.5314;2008-05-14;2019-09-15;2022-05-11;1014.0;
BORB;:;CONCRETE BLOCK;:;;;BORB;38.8103;352.5375;496.007;4934783.7571;-646392.3506;3976241.789;2008-05-17;2022-06-01;2022-06-17;4954.0;
BORR;Steel tower on concrete platform;1.05;Concrete platform;0.30;LIMESTONE;BORR;39.9052;359.9168;72.887;4899519.0841;-7115.5412;4069961.6432;2005-07-12;2022-09-17;2022-09-26;6165.0;
BOTI;STEEL MAST;:  ROOF;:;;;BOTI;41.6929;352.3419;585.626;4727645.8019;-635681.474;4220584.6455;2008-10-28;2022-06-01;2022-06-17;4777.0;
BOUL;Steel Pin in Rock;:  UNKNOWN;:;;;BOUL;35.9067;245.2123;638.481;-2168644.804;-4696034.3402;3720182.0165;2007-03-23;2018-04-12;2022-05-11;199.0;
BRAD;Steel Pin in Rock;:  UNKNOWN;:;;;BRAD;39.7774;240.9485;1325.732;-2384066.8193;-4291875.2039;4059866.5908;2004-01-30;2022-09-19;2022-10-01;3936.0;
BRAG;STEEL MAST;:;:;;;BRAG;41.5533;351.5711;250.646;4728604.836;-700697.6849;4208773.0801;2017-01-01;2022-06-01;2022-06-17;1757.0;
BRAN;Wyatt/Agnew drilled-braced;:;:;;;BRAN;34.1849;241.723;246.245;-2502254.7099;-4651654.1617;3563569.2824;1994-12-01;2022-09-24;2022-10-01;9781.0;
BRBR;Steel Pin in Rock;:  UNKNOWN;:;;;BRBR;41.2303;239.8909;1819.743;-2410491.4763;-4156792.7142;4182890.0282;2006-08-12;2011-09-20;2022-05-11;38.0;
BRCH;PILLAR;1.52;POURED CONCRETE CYLINDER;3.66               :;;BRCH;43.2508;276.1327;159.996;497093.1536;-4626394.9773;4347946.1774;2004-06-30;2022-09-24;2022-10-01;6063.0;
BRD1;Steel Pin in Rock;:  UNKNOWN;:;;;BRD1;39.8093;240.9972;1247.393;-2379292.2406;-4291862.1732;4062539.1651;2016-03-05;2022-09-19;2022-10-01;2384.0;
BRDY;Steel Pin in Rock;:  UNKNOWN;:;;;BRDY;39.7813;240.9914;1269.092;-2380700.0896;-4293373.5117;4060166.8679;2012-01-28;2022-09-19;2022-10-01;2973.0;
BRGN;STEEL MAST;:  ROOF;:;;;BRGN;41.8074;353.2361;789.792;4728731.9668;-560842.5464;4230209.2848;2007-06-12;2022-06-01;2022-06-17;5390.0;
BRI2;SHALLOW-DRILLED BRACED;:;: BEDROCK;;;BRI2;37.9195;237.8475;265.104;-2681170.1712;-4265459.7564;3898559.3801;2019-12-07;2022-09-24;2022-10-01;1020.0;BRIC
BRIB;:;:;BEDROCK;;;BRIB;37.9194;237.8474;262.268;-2681173.1037;-4265460.5499;3898551.8989;1994-01-12;2019-03-19;2022-05-11;8558.0;
BRIC;:;:;BEDROCK;;;BRIC;37.9194;237.8474;263.176;-2681173.8788;-4265460.825;3898552.5486;2015-10-07;2016-10-20;2022-05-11;380.0;
BRID;Steel Pin in Rock;:  UNKNOWN;:;;;BRID;38.207;240.689;2127.489;-2457504.2825;-4377246.6403;3924840.9625;2005-09-23;2022-08-30;2022-09-11;1371.0;
BRIG;PILLAR;1.52;POURED CONCRETE CYLINDER;3.66               :;;BRIG;42.5201;276.2433;261.34;512038.6829;-4680414.9149;4288537.4302;2001-09-01;2022-09-24;2022-10-01;7075.0;
BRJA;BASE ANCHORED TO ROOF;2.0;ROOF;:;;BRJA;41.8349;358.4738;493.605;4757928.5271;-126764.3314;4232288.3965;2009-07-10;2019-12-31;2022-05-11;2577.0;
BRKG;:;:                      :;;;;BRKG;44.3149;263.2137;492.021;-540192.3272;-4539427.6083;4433535.2232;2011-02-23;2022-09-24;2022-10-01;4101.0;
BRMU;Bolt in concrete on top of a chimney;:;:;;;BRMU;32.3704;295.3037;-11.631;2304703.4449;-4874817.1843;3395186.9406;1994-01-14;2020-09-27;2022-05-11;8897.0;
BRNT;BLDING MOUNT 9 Pipe,W/SCIGN MT.;:  BUILDING/Concrete Block Walls;:;;;BRNT;44.4402;241.8087;1212.699;-2155275.1759;-4021033.6547;4443996.6544;2018-07-20;2022-09-24;2022-10-01;1503.0;
BROK;Steel Pin in Rock;:  UNKNOWN;:;;;BROK;39.1688;242.0574;1820.646;-2320876.5529;-4375501.4313;4008010.1841;2006-04-13;2021-10-23;2022-05-11;829.0;
BRPK;Wyatt/Agnew drilled-braced;:;: Bedrock;;;BRPK;34.6823;241.4232;1729.111;-2512215.8676;-4612170.9358;3609922.4659;2000-12-07;2019-07-09;2022-05-11;6643.0;
BRSG;Mast in chimney;:;: BEDROCK;;;BRSG;32.3704;295.3036;-10.997;2304697.0033;-4874821.8475;3395185.818;2016-02-25;2022-09-24;2022-10-01;2046.0;
BRSP;SHALLOW FOUNDATION PILLAR;:;:;;;BRSP;45.4016;238.2915;2061.282;-2358553.4788;-3817555.7426;4520261.2728;2020-10-07;2022-09-24;2022-10-01;663.0;
BRTW;PILLAR;:;:;;;BRTW;27.9496;278.2172;12.034;805863.3015;-5580462.7148;2971581.0116;2003-07-03;2022-09-20;2022-10-01;5827.0;
BRU5;METAL MAST;:;:;;;BRU5;43.8898;290.0534;2.041;1578685.0353;-4324850.0499;4399278.2829;1995-10-26;2013-07-09;2022-05-11;5903.0;
BRU6;METAL MAST;:;:;;;BRU6;43.8897;290.0534;4.906;1578683.9532;-4324861.5175;4399271.6033;1996-05-20;2013-07-09;2022-05-11;3488.0;
BRU7;METAL MAST;:;:;;;BRU7;43.8897;290.0534;4.252;1578689.4628;-4324857.2474;4399272.8665;2013-07-24;2016-08-04;2022-05-11;1086.0;
BRU8;METAL MAST;:;:;;;BRU8;43.8899;290.0533;3.998;1578676.9449;-4324851.7565;4399282.3241;2013-07-24;2016-08-04;2022-05-11;1038.0;
BRVL;Steel Pin in Rock;:  UNKNOWN;:;;;BRVL;38.4942;239.9587;2387.859;-2503291.35;-4328612.7912;3950016.067;2015-08-06;2021-08-13;2022-05-11;345.0;
BRWN;:;:                      :;;;;BRWN;44.7304;265.6438;290.797;-344763.9344;-4525819.0546;4466319.2351;2005-12-01;2022-09-24;2022-10-01;5525.0;
BRYL;PERMANENT STATION UNSPECIFIED;:;:;;;BRYL;44.6609;249.2471;2209.777;-1610730.4652;-4250790.6105;4462175.2685;2009-08-07;2020-08-18;2022-05-11;1637.0;
BSNC;BEDROCK-BOLTED MAST;:;:;;;BSNC;44.7396;247.4685;2167.157;-1739512.3377;-4193035.1703;4468368.5024;2011-10-09;2016-08-12;2022-05-11;1770.0;
BSPC;BEDROCK-BOLTED MAST;:;:;;;BSPC;44.5784;247.1371;2394.801;-1768696.1194;-4194658.4948;4455781.0609;2011-09-26;2019-08-30;2022-05-11;2873.0;
BSRY;Wyatt/Agnew drilled-braced;:;: SEDIMENTS / AEOLIAN;;;BSRY;34.9186;242.988;613.472;-2378117.7502;-4664904.7184;3630818.1448;1998-11-10;2022-09-24;2022-10-01;8703.0;
BTDM;Wyatt/Agnew drilled-braced;:;: Bedrock;;;BTDM;34.2928;241.8118;678.244;-2492027.3446;-4649905.94;3573708.8317;2000-01-28;2022-09-24;2022-10-01;7770.0;
BTON;BLDING MOUNT 2 STEEL PIPE W/SCIGN MOUNT;:  Building;:;;;BTON;45.4858;237.2026;46.76;-2426294.2575;-3765247.6686;4525396.7409;2003-05-11;2022-09-17;2022-09-26;5145.0;COBO
BUEG;SHALLOW FOUNDATION MAST;:;:;;;BUEG;34.6128;239.8036;74.803;-2643087.138;-4541933.3711;3602644.3377;2015-05-15;2022-09-24;2022-10-01;2654.0;
BUEH;BEDROCK-BOLTED MAST;:;:;;;BUEH;44.6963;247.3723;1955.074;-1747792.4026;-4193096.5447;4464799.1375;2011-11-13;2016-08-11;2022-05-11;1733.0;
BUFF;Steel Pin in Rock;:  UNKNOWN;:;;;BUFF;40.3614;242.7338;1483.505;-2230128.3635;-4327057.1289;4109606.555;2004-02-19;2018-09-11;2022-05-11;649.0;
BUIT;PILLAR;1.2;CONCRETE BLOCK;: GNEISS;;BUIT;41.0006;356.3631;1032.66;4811616.3052;-305828.8486;4163151.9285;2016-01-29;2022-09-17;2022-09-26;2251.0;
BULL;PERMANENT STATION UNSPECIFIED;:  UNKNOWN;:;;;BULL;36.9176;243.1283;1344.788;-2308136.9471;-4555161.2777;3810897.65;1999-03-23;2011-04-13;2022-05-11;4326.0;
BUOS;STEEL MAST;1.5;ROOF;0                  :;;BUOS;41.5881;356.932;963.985;4771362.9419;-255731.6987;4212133.8887;2007-04-28;2022-09-17;2022-09-26;5541.0;
BURG;STEEL MAST;1.5;ROOF;0                  :;;BURG;42.347;356.3132;939.6;4712044.3374;-303624.5307;4274801.7184;2007-03-09;2022-09-17;2022-09-26;5551.0;
BURN;SHALLOW FOUNDATION PILLAR;:  UNKNOWN;: Gravel (with clay) overlying bedrock;;;BURN;42.7795;242.1565;1180.921;-2190267.0198;-4146571.9919;4310356.9743;1998-09-03;2022-09-24;2022-10-01;8547.0;
BURR;Steel Pin in Rock;:  UNKNOWN;:;;;BURR;40.5189;240.161;1252.258;-2416384.0369;-4212593.1929;4122768.9683;2005-12-22;2021-04-20;2022-05-11;906.0;
BUST;PERMANENT STATION UNSPECIFIED;:  UNKNOWN;:;;;BUST;36.7453;243.5491;992.294;-2279604.7436;-4582000.4506;3795378.5136;1999-03-12;2010-01-24;2022-05-11;3903.0;
BUTM;Steel Pin in Rock;:  UNKNOWN;:;;;BUTM;37.3464;241.4451;1779.381;-2427368.4478;-4460467.2399;3849107.1174;2005-05-12;2020-09-14;2022-05-11;424.0;
BUTT;Steel Pin in Rock;:  UNKNOWN;:;;;BUTT;41.4789;240.1593;1747.667;-2381887.6505;-4152162.3832;4203573.8141;2006-08-10;2021-08-26;2022-05-11;868.0;
BVAL;Steel Pin in Rock;:  UNKNOWN;:;;;BVAL;39.5654;239.7628;2042.562;-2480218.6206;-4255077.4428;4042207.1521;2007-05-02;2017-10-23;2022-05-11;573.0;
BVHS;ANGLE IRON;:  WALL;:;;;BVHS;29.3368;270.5936;-15.678;57650.1947;-5564331.4556;3106490.8312;2002-08-21;2022-09-24;2022-10-01;5975.0;
BVPP;Wyatt/Agnew drilled-braced;:;: Bedrock;;;BVPP;35.1573;240.6525;123.05;-2558594.8843;-4550517.5695;3652217.0024;2002-02-02;2022-08-31;2022-09-11;7393.0;
CA99;SHALLOW FOUNDATION MAST;:;: Bedrock site;;;CA99;37.6446;241.1033;2391.538;-2444435.2147;-4428691.495;3875741.7644;2000-04-10;2022-08-29;2022-09-11;7439.0;
CAAL;PILLAR/STEEL MAST;:;:;;;CAAL;37.2211;357.4524;2210.684;5081921.2994;-226112.1277;3838297.8714;2006-11-23;2022-09-17;2022-09-26;5613.0;
CABL;PERMANENT STATION UNSPECIFIED;:  UNKNOWN;: Unconsolidated sediments with sand and gravel;;;CABL;42.8361;235.4367;37.83;-2657528.4665;-3857584.2858;4314193.2674;1997-08-17;2022-09-24;2022-10-01;9018.0;
CABO;:;:                      :;;;;CABO;37.6309;359.3016;56.468;5057218.6064;-61647.2627;3873111.572;2010-01-07;2020-10-25;2022-05-11;3368.0;
CABR;PILLAR/STEEL MAST;0;ROOF;:;;CABR;37.468;355.5758;572.125;5053918.3748;-391028.1073;3859090.1469;2007-10-30;2022-09-17;2022-09-26;4920.0;
CACC;Mast on Pier;:;:;;;CACC;41.7456;235.8157;-21.958;-2677721.139;-3942470.2052;4224548.5835;2011-09-27;2021-12-29;2022-05-11;3058.0;
CACE;PILLAR;1.20;CONCRETE BLOCK;5;CLAY;CACE;39.4789;353.6582;436.494;4899866.6621;-544567.3921;4033769.9542;2000-12-05;2022-09-16;2022-09-26;7673.0;
CACT;Wyatt/Agnew drilled-braced;:;: Sediments;;;CACT;33.6551;244.0101;518.433;-2329097.752;-4777485.2508;3514957.2279;2001-02-11;2022-09-24;2022-10-01;7223.0;
CAE1;:;:                      :;;;;CAE1;34.7513;244.77;515.324;-2236391.4772;-4746117.3067;3615527.2575;2007-01-25;2016-08-04;2022-05-11;3316.0;
CAE2;:;:                      :;;;;CAE2;34.7511;244.7701;515.312;-2236390.9631;-4746134.0683;3615505.6966;2007-01-25;2016-08-04;2022-05-11;3243.0;
CAGS;Pillar;1.50;Concrete block;0.00;Bedrock;CAGS;45.585;284.1927;234.923;1096349.128;-4335060.588;4533255.1697;1997-07-18;2022-09-24;2022-10-01;8171.0;
CAL2;BASE ANCHORED TO ROOF;1.5;ROOF;:;;CAL2;40.9214;358.7014;942.153;4825782.3765;-109395.0569;4156451.9898;2010-04-01;2019-12-31;2022-05-11;2620.0;CALA
CALA;Steel Pin in Rock;:  UNKNOWN;:;;;CALA;38.5963;241.8713;1868.938;-2353910.8289;-4403165.0953;3958552.6382;2005-11-17;2021-07-12;2022-05-11;439.0;
CALC;"10' x 2"" Galvanized Pipe";9;Galvanized Platform Railing;27;BEDROCK;CALC;29.7681;266.6571;-15.18;-323106.0189;-5531620.9723;3148081.7141;2015-01-01;2022-09-24;2022-10-01;2660.0;
CALH;STEEL MAST;1.5;ROOF;:;;CALH;42.2949;358.005;411.412;4722454.7792;-164501.4606;4270170.6705;2009-01-01;2022-09-17;2022-09-26;4725.0;
CALL;Steel Pin in Rock;:  UNKNOWN;:;;;CALL;39.6878;243.226;1845.666;-2214673.8893;-4389259.5083;4052548.3105;2007-10-19;2019-06-12;2022-05-11;482.0;
CALU;STEEL MAST;:  ROOF;:;;;CALU;41.7298;272.4616;147.954;204744.3206;-4762736.0334;4223356.0555;2003-03-10;2021-12-09;2022-05-11;5006.0;
CAM3;:;:                      :;;;;CAM3;45.5746;266.7839;272.742;-250914.1071;-4465354.9479;4532473.1112;2005-12-01;2022-07-07;2022-07-24;5173.0;CAMB
CAM5;:;:                      :;;;;CAM5;35.5293;238.9571;17.011;-2679750.4075;-4452297.7554;3685820.5839;2019-11-27;2022-09-24;2022-10-01;1021.0;
CAMB;Steel Pin in Rock;:  UNKNOWN;:;;;CAMB;38.7922;240.9269;1519.118;-2419417.1618;-4351643.8831;3975317.4148;2005-10-20;2022-02-09;2022-05-11;885.0;
CAMR;STEEL MAST;:  ROOF;:;;;CAMR;29.7985;266.6749;-11.645;-321293.0293;-5530055.1763;3151004.3087;2008-01-05;2022-09-24;2022-10-01;3587.0;
CAND;Wyatt/Agnew drilled-braced;:;: BEDROCK;;;CAND;35.9394;239.5663;568.378;-2619025.0577;-4458011.1121;3723078.9743;1999-08-21;2021-06-29;2022-05-11;7864.0;
CANT;STEEL MAST;3;CONCRETE BLOCK;3;BEDROCK;CANT;43.472;356.2019;99.283;4625924.4773;-307096.4938;4365771.4129;2000-03-12;2022-09-17;2022-09-26;8033.0;
CAP1;ALUMINUM MAST - 3 INCH;8.9;CONCRETE;0.75               :;;CAP1;37.7142;237.7779;-20.848;-2693675.5972;-4273830.1406;3880383.2159;2011-10-26;2022-09-24;2022-10-01;3590.0;CAPO
CAP5;:;:                      :;;;;CAP5;34.4077;240.4509;-26.828;-2597925.2133;-4582646.0858;3583834.1536;2021-10-20;2022-09-24;2022-10-01;304.0;CAPL
CAPT;ALUMINIUM TRIANGULAR PLATE FIXED ON TOP OF A;:  CONCRETE SLAB;:;;;CAPT;44.2952;359.7433;160.082;4572697.0373;-20484.3652;4431741.5586;2012-03-21;2022-09-24;2022-10-01;3694.0;
CARB;PERMANENT STATION UNSPECIFIED;:  UNKNOWN;:;;;CARB;33.9529;253.2644;1626.84;-1525451.3873;-5073142.4357;3543025.7042;2005-01-26;2007-06-13;2022-05-11;512.0;
CARC;STEEL MAST;1.5;MAST SCREW ANCHORED TO BUILDING WALL;0                  :;;CARC;42.3782;358.5592;420.393;4717608.3824;-118657.6498;4277009.4419;2009-12-01;2022-09-17;2022-09-26;4563.0;
CARE;Steel Pin in Rock;:  UNKNOWN;:;;;CARE;38.515;248.6809;1854.062;-1817260.8341;-4656436.7484;3951486.3576;2010-07-31;2020-09-28;2022-05-11;2747.0;
CARG;PILLAR;0.80;CONCRETE BLOCK;1;CLAY/LIMESTONE/CLAY;CARG;37.5966;359.0262;57.299;5059185.2036;-85998.689;3870099.581;2014-05-23;2022-09-17;2022-09-26;2956.0;
CARH;Wyatt/Agnew drilled-braced;:;: Bedrock;;;CARH;35.8884;239.5692;480.252;-2620445.4926;-4460941.4464;3718446.7129;2001-08-10;2021-06-29;2022-05-11;7250.0;
CARR;removeable tripod / concrete pad;:;:;;;CARR;35.8883;239.5692;478.642;-2620447.0707;-4460941.5981;3718442.6808;1994-05-22;2003-04-23;2022-05-11;3092.0;
CARS;Steel Pin in Rock;:  UNKNOWN;:;;;CARS;39.1449;240.2006;1750.247;-2462235.2426;-4299408.1891;4005911.514;2005-10-07;2022-06-26;2022-07-08;3952.0;
CARV;PILLAR;2.00;CONCRETE BLOCK;2;BEDROCK;CARV;38.0459;358.0323;902.405;5027036.8678;-172708.5825;3910012.2417;2009-09-01;2022-09-17;2022-09-26;3200.0;CARA
CAS0;STEEL MAST;1.5;CONCRETE BLOCK;:;;CAS0;42.5438;357.0862;564.213;4700702.3172;-239260.2708;4290678.1353;2009-03-07;2022-09-17;2022-09-26;4692.0;
CASA;PILLAR;:  CONCRETE PILLAR;3.00               :;;;CASA;37.6446;241.1033;2390.377;-2444430.2533;-4428687.6341;3875747.3542;1994-01-01;2005-11-26;2022-05-11;3315.0;
CASC;PILLAR;2;CONCRETE BLOCK;: BEDROCK;;CASC;38.6934;350.5815;76.032;4917536.9587;-815726.2152;3965857.3826;1997-07-19;2022-08-22;2022-09-03;8657.0;
CASE;DEEP-DRILLED BRACED;:;:;;;CASE;33.4554;242.596;776.484;-2452019.7748;-4729620.8189;3496631.7019;2013-12-07;2021-12-13;2022-05-11;2928.0;
CASI;Steel Pin in Rock;:  UNKNOWN;:;;;CASI;40.8327;240.7628;1266.504;-2360913.8935;-4217925.0861;4149214.2337;2006-08-11;2022-05-19;2022-06-17;466.0;
CASL;:;:                      :;;;;CASL;34.3446;282.1246;-17.292;1107275.1422;-5154173.912;3578066.657;2002-04-10;2009-01-06;2022-05-11;2002.0;
CASN;ALUMINUM MAST - 3 INCH;35;CONCRETE;3.5                :;;CASN;34.4157;240.1547;3.483;-2621341.9258;-4568743.3496;3584582.1854;2011-10-26;2022-09-24;2022-10-01;3935.0;
CASO;STEEL MAST;:  ROOF;:;;;CASO;43.1819;354.6576;651.875;4638385.3697;-433753.929;4342706.3496;2010-02-18;2022-09-24;2022-10-01;4443.0;
CASP;BRACED METAL PIPE;:  ROOF;:;;;CASP;42.8192;253.6159;1571.41;-1322023.1383;-4496464.0528;4313856.5813;2000-04-01;2013-01-25;2022-05-11;4475.0;
CASR;STEEL MAST - 3 INCH;6.8;CONCRETE;0.75               :;;CASR;38.4407;237.253;11.46;-2705829.2647;-4207165.8654;3943880.5634;2012-06-20;2022-09-24;2022-10-01;3699.0;
CASS;PILLAR;1.52;POURED CONCRETE CYLINDER;3.66               :;;CASS;43.602;276.8389;196.84;550879.6066;-4593314.7776;4376306.9285;2003-04-10;2011-12-01;2022-05-11;3074.0;
CAST;DEEP-DRILLED BRACED;:  UNKNOWN;:;;;CAST;39.191;249.3227;2245.042;-1748465.022;-4632725.3234;4010194.1641;1997-03-27;2022-09-24;2022-10-01;9028.0;
CAT2;shallow rod/braced antenna mount;:;:;;;CAT2;33.3116;241.6662;477.241;-2532493.7482;-4696708.5692;3483154.289;2000-06-14;2022-04-18;2022-06-17;7829.0;
CAT3;SHALLOW-DRILLED BRACED;:;:;;;CAT3;33.4458;241.517;5.122;-2540622.89;-4682556.8588;3495319.0745;1995-06-26;2022-09-24;2022-10-01;9599.0;CAT1
CATU;STEEL MAST;:  WALL;:;;;CATU;38.7304;354.4612;538.65;4959262.3165;-480911.3474;3969353.5589;2010-04-01;2022-09-17;2022-09-26;4362.0;
CATY;BASE ANCHORED TO LEDGE;1.0;ROOF;:;;CATY;41.3527;358.3602;597.746;4793284.1002;-137216.7228;4192304.5883;2010-04-01;2019-12-31;2022-05-11;2621.0;
CAYU;PERMANENT STATION UNSPECIFIED;:  UNKNOWN;:;;;CAYU;42.9435;283.4596;204.498;1088475.8334;-4547937.5176;4323051.7089;2005-10-06;2017-01-17;2022-05-11;3098.0;
CAZA;PILLAR;0;ROOF;:;;CAZA;37.9379;354.2402;663.106;5011763.688;-505522.0198;3900415.8919;2007-07-10;2022-09-17;2022-09-26;5169.0;
CBHS;Wyatt/Agnew drilled-braced;:;: BEDROCK;;;CBHS;34.1386;241.3702;284.61;-2532244.2614;-4638721.4436;3559337.9322;1999-02-17;2022-09-24;2022-10-01;7779.0;
CBRA;STEEL MAST;:  ROOF;:;;;CBRA;39.819;352.4878;436.548;4863829.8978;-641386.9445;4062849.0666;2007-03-30;2022-06-01;2022-06-17;5296.0;
CBRG;Aluminum pillar;3.35;Concrete on rock-filled wharf;N/A                :;;CBRG;43.9565;281.8356;42.469;943247.7651;-4501094.0046;4404640.5763;2011-10-11;2022-09-24;2022-10-01;3645.0;
CCCC;Wyatt/Agnew drilled-braced;:;: Sediments;;;CCCC;35.5653;242.3288;813.98;-2412475.7548;-4600712.079;3689538.4227;2000-09-07;2022-09-24;2022-10-01;7760.0;
CCCO;Wyatt/Agnew drilled-braced;:;: SEDIMENTS, FINE ALLUVIAL;;;CCCO;33.8763;241.7888;-16.944;-2505860.6711;-4671218.1219;3535049.9468;1999-01-30;2013-06-10;2022-05-11;5042.0;
CCCS;Wyatt/Agnew drilled-braced;:;": Holocene terrace; gravelly sand";;;CCCS;33.8627;242.1351;31.822;-2477995.0332;-4687050.8553;3533832.2268;1999-02-03;2022-09-24;2022-10-01;8067.0;
CCEX;STEEL MAST;:  WALL;:;;;CCEX;39.4723;353.6221;543.543;4900064.7652;-547717.7019;4033275.5899;2010-04-01;2022-09-17;2022-09-26;4371.0;
CCGE;:;:                      :;;;;CCGE;33.9628;275.5771;298.596;514676.4096;-5270744.9602;3543189.4478;2009-01-09;2012-10-18;2022-05-11;1269.0;
CCGN;:;:                      :;;;;CCGN;34.0091;275.3935;289.317;497513.1896;-5269497.8975;3547447.851;2009-01-09;2012-10-18;2022-05-11;1363.0;
CCGS;:;:                      :;;;;CCGS;33.8402;275.3882;297.866;498004.1642;-5279964.4512;3531902.0114;2009-01-09;2012-10-18;2022-05-11;1305.0;
CCMK;ANTENNA MOUNTED ON PIPE BOLTED TO TOP OF;15;Concrete;5;GLACIAL TILL/BEDROCK;CCMK;41.5897;272.3068;168.437;192296.8732;-4773624.7117;4211740.9842;2012-01-05;2020-10-17;2022-05-11;2827.0;
CCRM;ANTENNA MOUNTED ON PIPE BOLTED TO TOP OF;15;Concrete;5;GLACIAL TILL/BEDROCK;CCRM;42.0875;271.9926;195.748;164835.067;-4737771.5005;4252949.7784;2012-08-29;2021-07-23;2022-05-11;2468.0;
CCSK;ANTENNA MOUNTED ON PIPE BOLTED TO TOP OF;15;CONCRETE;5;GLACIAL TILL/BEDROCK;CCSK;42.0635;272.2328;167.591;184766.9616;-4738801.8784;4250953.2843;2013-02-14;2019-10-20;2022-05-11;2229.0;
CCST;Wyatt/Agnew drilled-braced;:;: Sediments;;;CCST;34.8064;240.9865;1578.091;-2543426.3466;-4585920.7694;3621149.8968;2003-07-24;2021-10-07;2022-05-11;4681.0;
CCV1;:;:                      :;;;;CCV1;28.4599;279.4567;-24.096;921997.9178;-5535327.8625;3021401.2185;1996-02-06;1999-01-10;2022-05-11;889.0;
CCV2;:;:                      :;;;;CCV2;28.4604;279.4571;-24.478;922031.8559;-5535297.5898;3021445.2186;1997-05-09;1998-03-31;2022-05-11;15.0;
CCV5;:;:                      :;;;;CCV5;28.4602;279.4548;-24.168;921807.1581;-5535343.2491;3021430.8827;1998-08-04;2019-09-03;2022-05-11;7297.0;
CCV6;:;:                      :;;;;CCV6;28.46;279.4545;-24.235;921785.7449;-5535361.2118;3021404.5424;1998-08-07;2019-09-03;2022-05-11;5312.0;
CCYN;Steel Pin in Rock;:  UNKNOWN;:;;;CCYN;39.1024;240.6523;1532.104;-2429641.93;-4321136.6627;4002108.9819;2007-05-04;2022-07-25;2022-08-05;1427.0;
CDJ2;ALUMINIUM TRIANGULAR PLATE FIXED ON TOP OF A;:  CONCRETE SLAB;:;;;CDJ2;44.7288;359.4701;65.13;4538704.2294;-41976.5502;4466032.1798;2014-03-11;2021-03-22;2022-05-11;2508.0;
CDJC;ALUMINIUM TRIANGULAR PLATE FIXED ON TOP OF A;:  CONCRETE SLAB;:;;;CDJC;44.7294;359.4697;65.678;4538656.2007;-42012.1441;4466081.1082;2011-10-12;2013-10-10;2022-05-11;713.0;
CDMT;SHALLOW DRILLED-BRACED;:;: Bedrock;;;CDMT;34.8295;243.6641;936.558;-2325536.3783;-4697945.8016;3622888.3871;2000-10-18;2022-09-24;2022-10-01;7884.0;
CDRD;STEEL MAST;1.5;ROOF;0                  :;;CDRD;40.59;353.4619;679.421;4819303.7271;-552338.3442;4128399.1285;2007-02-07;2022-09-17;2022-09-26;5455.0;
CDVV;PERMANENT STATION UNSPECIFIED;:  UNKNOWN;:;;;CDVV;34.2542;253.0302;1552.02;-1540686.3508;-5048882.9704;3570657.2925;2005-11-18;2018-06-11;2022-05-11;4328.0;
CEBR;PILLAR;3;CONCRETE BLOCK;2                  :;;CEBR;40.4535;355.6321;743.053;4846637.1856;-370193.26;4116911.6561;2007-04-10;2022-09-17;2022-09-26;5619.0;
CEDA;DEEP-DRILLED BRACED;:  UNKNOWN;:;;;CEDA;40.6807;247.1395;1472.496;-1882186.3578;-4464346.9544;4136557.1016;1996-07-15;2022-09-24;2022-10-01;9036.0;
CERB;Steel Pin in Rock;:  UNKNOWN;:;;;CERB;35.4646;245.9591;936.201;-2119017.4884;-4750253.3483;3680509.7676;2007-03-21;2019-08-12;2022-05-11;242.0;
CERR;Steel Pin in Rock;:  UNKNOWN;:;;;CERR;36.5364;242.1791;2043.444;-2395349.4783;-4539177.5929;3777398.1829;2005-06-30;2020-05-26;2022-05-11;492.0;
CERV;STEEL MAST;2.5;CONCRETE BLOCK;:;;CERV;42.0074;358.0568;723.315;4744255.7104;-160965.8049;4246699.5861;2009-01-01;2022-09-17;2022-09-26;4829.0;
CEU1;Brass plate with centering screw incrusted i;1.2;Concrete block;: Conglomerate;;CEU1;35.892;354.6936;52.468;5150907.8224;-478414.6827;3718518.5323;2007-08-25;2022-09-17;2022-09-26;5377.0;
CEUT;PILLAR;0.5;CONCRETE BLOCK;1;CONGLOMERATE;CEUT;35.8961;354.6887;51.85;5150601.7911;-478834.3786;3718884.8659;2001-11-15;2006-12-03;2022-06-17;1695.0;
CFHS;BUILDING WALL;:;:;;;CFHS;29.9192;264.3681;15.715;-542969.7827;-5506033.9765;3162624.8778;2015-08-05;2022-09-24;2022-10-01;2551.0;
CFJV;BUILDING WALL;:;:;;;CFJV;29.8816;264.4442;8.703;-535857.3312;-5508811.3773;3159009.5124;2015-10-09;2022-09-24;2022-10-01;2540.0;
CGDM;SHALLOW DRILLED-BRACED;:;: BEDROCK;;;CGDM;34.244;242.0351;704.681;-2475328.13;-4662294.3187;3569248.5219;2000-07-19;2022-09-24;2022-10-01;7428.0;
CHA1;:;:                      :;;;;CHA1;32.7576;280.1571;-28.899;946821.8062;-5284901.6332;3431363.1753;1995-08-30;2003-11-16;2022-05-11;2858.0;
CHAB;DEEP-DRIVEN ROD BRACED;:  UNKNOWN;:;;;CHAB;37.7241;237.8807;213.928;-2685744.8018;-4278240.8603;3881399.4515;1995-04-13;2012-12-31;2022-05-11;6235.0;
CHB5;STEEL TOWER;:;:;;;CHB5;45.6535;275.5344;145.267;430716.769;-4445226.6;4538514.1289;1995-08-15;2020-06-16;2022-05-11;8427.0;
CHB6;STEEL TOWER;:;:;;;CHB6;45.6537;275.5342;144.869;430699.7104;-4445211.6734;4538529.7022;1996-05-09;2020-06-30;2022-05-11;5658.0;
CHCN;BEDROCK-BOLTED MAST;:;:;;;CHCN;44.6477;247.2834;2293.834;-1755864.0346;-4194104.9119;4461192.7247;2011-09-22;2016-08-11;2022-05-11;1726.0;
CHEM;BLDING MOUNT 2 STEEL PIPE W/SCIGN MOUNT;:  ODOT MAINTENANCE BUILDING CONC BLOCK ME:                      :;;;;CHEM;43.2244;238.2142;1439.969;-2452510.7392;-3957679.6195;4346683.8578;2009-01-20;2022-08-09;2022-08-19;4330.0;
CHES;STEEL MAST;:  ROOF;:;;;CHES;39.9517;284.3997;108.24;1217618.3812;-4742421.957;4073941.371;2009-02-04;2016-02-13;2022-05-11;2488.0;
CHIA;Steel Pin in Rock;:  UNKNOWN;:;;;CHIA;37.8382;241.793;1982.909;-2384575.4911;-4445915.844;3892490.2914;2005-11-09;2020-09-05;2022-05-11;322.0;
CHIH;PILLAR;(1.5;CONCRETE BLOCK, ROOF;:;;CHIH;28.6622;253.9133;1413.19;-1552307.9147;-5382771.9635;3041779.7377;2010-08-12;2016-01-13;2022-05-11;1637.0;CHI3
CHIL;rock-pin/metal-tripod;:;: BEDROCK;;;CHIL;34.3334;241.974;1567.505;-2478003.2859;-4655349.0647;3577932.2746;1994-09-03;2022-09-24;2022-10-01;9477.0;
CHIN;STEEL MAST;:;:;;;CHIN;24.5505;278.1929;-15.084;827227.1863;-5745622.007;2633858.1404;2008-11-28;2022-09-24;2022-10-01;2506.0;
CHIR;Steel Pin in Rock;:  UNKNOWN;:;;;CHIR;32.0057;250.6336;1614.175;-1795691.4022;-5108691.2512;3361821.2033;2010-08-20;2019-03-08;2022-05-11;2851.0;
CHL1;STEEL TOWER;:;:;;;CHL1;38.7768;284.9123;-13.391;1281265.7608;-4811189.1135;3973020.9745;1995-07-12;2002-01-15;2022-05-11;2235.0;
CHL2;STEEL TOWER;:;:;;;CHL2;38.7769;284.9127;-8.199;1281301.7507;-4811178.4803;3973030.5245;1996-05-22;2000-09-12;2022-05-11;127.0;
CHLL;DEEP FOUNDATION MAST;:;:;;;CHLL;40.4466;255.3621;1407.178;-1228612.1847;-4703955.9062;4116758.581;2013-12-19;2020-10-03;2022-05-11;2196.0;
CHLO;PERMANENT STATION UNSPECIFIED;:  UNKNOWN;:;;;CHLO;36.7465;243.2345;864.224;-2304646.7656;-4569254.4401;3795405.623;1999-08-04;2011-04-12;2022-05-11;4042.0;
CHME;CANTILEVERED METAL PIPE;:  ROOF;:;;;CHME;35.2767;279.1109;225.321;825452.4619;-5147175.9739;3663097.6448;2002-02-12;2012-02-09;2022-05-11;3149.0;
CHMS;Wyatt/Agnew drilled-braced;:;:;;;CHMS;34.6405;242.1723;760.296;-2452561.5918;-4646250.5969;3605554.6898;1999-09-02;2022-09-24;2022-10-01;8253.0;
CHNA;Steel Pin in Rock;:  UNKNOWN;:;;;CHNA;39.7203;242.9381;1887.508;-2235665.8526;-4376048.6948;4055355.0526;2006-10-26;2018-11-27;2022-05-11;457.0;
CHO5;STEEL TOWER;:;:;;;CHO5;39.4326;238.335;16.647;-2589570.159;-4198612.081;4029540.5053;1999-07-16;2016-08-04;2022-05-11;5981.0;
CHO6;STEEL TOWER;:;:;;;CHO6;39.4329;238.3351;17.214;-2589555.6958;-4198601.4745;4029561.6079;1999-09-29;2016-08-04;2022-05-11;4786.0;
CHOW;pillar;:;:;;;CHOW;37.0849;239.7895;46.661;-2563371.0121;-4402454.9512;3824937.5371;2010-10-17;2022-09-24;2022-10-01;3804.0;
CHR1;CONCRETE WATCH TOWER;:  ROOF;:;;;CHR1;36.9271;283.9936;-26.621;1234421.5317;-4953339.5654;3810911.206;1995-12-09;1999-06-18;2022-05-11;1210.0;
CHR2;CONCRETE WATCH TOWER;:  ROOF;:;;;CHR2;36.927;283.9931;-27.038;1234379.6826;-4953355.0;3810904.0489;1996-05-09;1999-03-03;2022-05-11;25.0;
CHSN;PILLAR;1.52;POURED CONCRETE CYLINDER;3.66               :;;CHSN;43.1899;275.8772;165.115;476931.0342;-4633179.9927;4343017.6226;2004-08-07;2022-09-24;2022-10-01;6374.0;
CHSR;STEEL MAST;6.10;CONCRETE BLOCK;1.00;GRAVEL;CHSR;44.6;295.6786;79.703;1971168.1192;-4099709.8439;4455862.9523;2015-02-04;2022-09-24;2022-10-01;2777.0;
CHT1;:;:                      :;;;;CHT1;41.6712;290.05;-10.484;1635806.1785;-4482177.3955;4218387.5645;1995-06-27;2002-06-10;2022-05-11;2461.0;
CHT2;:;:                      :;;;;CHT2;41.6711;290.0503;-10.307;1635832.2615;-4482175.4267;4218379.8613;1996-05-21;2002-06-10;2022-05-11;80.0;
CHZZ;BUILDING ROOF;:  UNKNOWN;:;;;CHZZ;45.4865;236.0219;50.733;-2503336.4834;-3714407.3693;4525454.7907;1999-10-13;2022-09-24;2022-10-01;7889.0;
CIC1;CONCRETE BLOCK;0.35;CONCRETE BLOCK over bedrock;0.30;BEDROCK;CIC1;31.8707;243.3342;64.338;-2433177.0246;-4845044.9619;3348295.8189;1999-03-27;2009-12-13;2022-05-11;3440.0;
CICE;rock-pin;:;:;;;CICE;31.8713;243.3326;87.654;-2433307.5345;-4844963.1899;3348363.3015;1995-03-26;1999-02-08;2022-05-11;1297.0;
CIEZ;:;:                      :;;;;CIEZ;38.2332;358.6191;328.399;5015255.3898;-120893.8986;3926008.7534;2012-10-17;2022-09-17;2022-09-26;2824.0;
CIHL;SHALLOW FOUNDATION MAST;:;: VOLCANIC CINDER CONE;;;CIHL;43.7509;238.8513;1945.546;-2387708.643;-3950556.5207;4389486.2886;2011-09-13;2022-09-24;2022-10-01;3653.0;
CINN;Steel Pin in Rock;:  UNKNOWN;:;;;CINN;39.8053;241.1152;1288.991;-2370599.5767;-4297027.4887;4062228.1876;2004-01-30;2020-11-17;2022-05-11;864.0;
CIRX;Wyatt/Agnew drilled-braced;:;: Bedrock;;;CIRX;34.1096;241.0627;488.212;-2558057.3545;-4626792.2042;3556788.2975;2000-10-19;2022-09-24;2022-10-01;7920.0;
CIT1;wall;:  ROOF;:;;;CIT1;34.1367;241.8727;215.354;-2491490.2247;-4660803.2616;3559128.9902;1994-09-01;2022-09-24;2022-10-01;9833.0;
CJMG;SHALLOW FOUNDATION MAST;:;:;;;CJMG;34.2712;242.5755;1584.414;-2430790.7766;-4684574.198;3572238.1851;2012-11-20;2020-11-20;2022-05-11;2897.0;
CJMS;Wyatt/Agnew drilled-braced;:;: BEDROCK;;;CJMS;34.3138;242.5206;933.354;-2433802.6309;-4679402.274;3575776.5559;1999-03-11;2022-09-24;2022-10-01;8417.0;
CJTR;PERMANENT STATION UNSPECIFIED;:  UNKNOWN;:;;;CJTR;34.8217;267.727;125.995;-207899.9693;-5237726.4967;3621717.6103;1999-09-15;2022-09-24;2022-10-01;7807.0;
CJVG;SHALLOW FOUNDATION MAST;:;:;;;CJVG;34.5303;241.8558;1304.846;-2481675.5757;-4639142.4275;3595803.0714;2014-04-11;2022-09-24;2022-10-01;3006.0;
CLAR;shallow rod/braced antenna mount;:;: Coarse Alluvium;;;CLAR;34.1099;242.2912;373.623;-2458218.4323;-4680467.477;3556758.4842;1995-04-19;2022-08-27;2022-09-03;9840.0;
CLAY;:;:                      :;;;;CLAY;45.329;267.8156;342.4;-171215.2816;-4488637.7261;4513373.0619;2013-03-07;2022-09-24;2022-10-01;3460.0;
CLBD;SHALLOW-DRILLED BRACED;:;:;;;CLBD;33.1354;242.689;20.582;-2452987.8793;-4750343.934;3466552.8866;2011-07-23;2022-09-24;2022-10-01;4072.0;
CLCV;PERMANENT STATION UNSPECIFIED;:;: VOLCANIC ROCK;;;CLCV;42.976;237.9106;1873.817;-2483630.7416;-3960875.3034;4326828.7849;2010-08-25;2022-09-24;2022-10-01;4090.0;
CLDA;STEEL MAST;9.00;CONCRETE BLOCK;1.00;PIT RUN GRAVEL;CLDA;44.373;294.9669;90.646;1927559.3038;-4139906.5418;4437876.3024;2015-01-13;2022-09-24;2022-10-01;2798.0;
CLFT;BEDROCK-BOLTED MAST;:;:;;;CLFT;35.3733;271.9993;98.218;181649.1074;-5203469.8433;3671774.7313;2021-03-01;2022-09-17;2022-09-26;504.0;SCCF
CLHQ;BUILDING WALL;:;: On south end of building;;;CLHQ;42.8959;237.864;1952.469;-2490108.4007;-3964038.3136;4320363.9176;2009-10-13;2022-09-24;2022-10-01;3577.0;
CLIF;Steel Pin in Rock;:  UNKNOWN;:;;;CLIF;32.846;250.5831;1192.134;-1783459.8514;-5059632.8348;3440272.7485;2010-08-20;2019-03-05;2022-05-11;2850.0;
CLIO;Steel Pin in Rock;:  UNKNOWN;:;;;CLIO;39.7675;239.4506;1486.381;-2495863.065;-4228795.3839;4059129.7254;2007-07-20;2017-09-28;2022-05-11;291.0;
CLK5;:;:                      :;;;;CLK5;44.9356;262.0393;415.245;-626398.5115;-4479354.9231;4482579.8111;1999-07-16;2015-12-05;2022-05-11;5608.0;
CLK6;:;:                      :;;;;CLK6;44.9354;262.0393;415.305;-626402.1287;-4479373.9239;4482560.5338;2014-06-14;2015-11-27;2022-05-11;460.0;
CLMS;BUILDING WALL;:;: Summit of Mount Scott;;;CLMS;42.9229;237.9837;2705.286;-2481028.4503;-3967963.4946;4323078.8801;2009-08-13;2022-09-24;2022-10-01;2904.0;
CLOV;DEEP-DRILLED BRACED;:;:;;;CLOV;40.5584;245.1258;2084.911;-2041810.8529;-4403898.7699;4126643.3436;2006-11-17;2021-07-20;2022-05-11;5200.0;
CLRE;PILLAR;1.52;POURED CONCRETE CYLINDER;3.66               :;;CLRE;42.7239;277.4043;154.42;604777.8252;-4653800.8176;4305122.0504;2003-04-10;2022-09-24;2022-10-01;6844.0;
CLWD;Pillar/Aluminium;4.0;Concrete pad;N/A                :;;CLWD;44.5084;279.7799;144.782;773924.7204;-4489944.2755;4448656.4437;2017-11-04;2022-09-24;2022-10-01;1699.0;
CLWZ;BUILDING WALL;:;: Cinder Cone Island in Crater Lake;;;CLWZ;42.9343;237.8508;1869.837;-2489441.601;-3960956.5445;4323430.7115;2009-08-07;2022-09-24;2022-10-01;3319.0;
CMBB;CONCRETE PILLAR;:;: BEDROCK;;;CMBB;38.0342;239.614;695.713;-2544616.8977;-4339616.671;3908861.2126;1994-01-11;2022-09-24;2022-10-01;9913.0;
CME5;:;:                      :;;;;CME5;40.4418;235.6037;305.73;-2746197.3428;-4011270.5458;4115639.5657;1996-04-10;2019-09-03;2022-05-11;7995.0;
CME6;:;:                      :;;;;CME6;40.4414;235.6037;304.072;-2746211.2568;-4011291.5919;4115607.4124;1996-05-21;2019-09-03;2022-05-11;5418.0;
CMFB;BUILDING WALL;:;:;;;CMFB;29.6814;264.2712;8.153;-553584.4906;-5518140.4621;3139740.1138;2014-05-29;2022-09-24;2022-10-01;3006.0;
CMOD;STEEL MAST;:  ROOF;:;;;CMOD;37.6413;239.0;28.116;-2604474.7854;-4334577.9536;3874014.6437;2004-05-03;2022-09-24;2022-10-01;5709.0;
CMP9;glued-rod;:  CONCRETE BLOCK;:;;;CMP9;34.3532;241.5886;1138.06;-2508506.0381;-4637174.963;3579499.9173;1995-06-23;2022-09-24;2022-10-01;9442.0;
CN13;SHORT-DRILLED BRACED;:;:;;;CN13;24.0652;285.4662;-34.611;1553880.2984;-5615968.0742;2584863.3192;2014-01-28;2022-09-24;2022-10-01;3115.0;
CN15;SHALLOW-DRILLED BRACED;:;:;;;CN15;26.5567;281.3069;-27.528;1119331.0131;-5598187.4418;2834348.898;2011-06-22;2022-09-24;2022-10-01;2729.0;
CN26;SHORT-DRILLED BRACED;:;:;;;CN26;22.383;270.3176;-12.197;32708.5248;-5900364.9312;2413676.9777;2016-12-05;2018-03-01;2022-05-11;451.0;
CNAR;STEEL MAST;:  ROOF;:;;;CNAR;43.1658;353.4587;479.414;4629385.9636;-530836.2859;4341282.9745;2010-02-16;2022-09-24;2022-10-01;4295.0;
CNC1;STEEL MAST;2.7;REINFORCED CONCRETE;3.1                :;;CNC1;40.0771;251.2104;1650.8;-1574541.9176;-4627946.4588;4085603.2923;2009-08-02;2022-09-24;2022-10-01;4759.0;
CNDN;SHALLOW FOUNDATION MAST;:;:;;;CNDN;44.6783;247.3207;1839.205;-1752081.9182;-4192747.3313;4463289.9137;2011-11-12;2016-07-10;2022-05-11;1701.0;
CNDR;:;:                      :;;;;CNDR;37.8964;238.7215;-20.744;-2616491.9205;-4307013.8999;3896363.8489;1999-04-16;2006-03-02;2022-05-11;1944.0;
CNPP;Wyatt/Agnew drilled-braced;:;: Bedrock;;;CNPP;33.8576;242.3911;300.311;-2457276.2035;-4698554.2782;3533511.0773;2000-02-19;2022-09-24;2022-10-01;7926.0;
CNSO;STEEL MAST;8.00;CONCRETE BLOCK;1.00;PIT RUN GRAVEL;CNSO;45.3324;298.9711;23.791;2175496.8407;-3929371.2255;4513413.4797;2015-07-28;2022-09-24;2022-10-01;2611.0;
CNWM;:;:;SOIL;;;CNWM;37.5228;267.2965;357.742;-238909.2674;-5059507.8273;3863792.2496;1999-03-18;2008-09-18;2022-05-11;2547.0;
CNYN;PERMANENT STATION UNSPECIFIED;:;:;;;CNYN;44.7326;249.499;2390.849;-1590104.5133;-4252697.7947;4467972.2901;2018-10-04;2020-08-18;2022-05-11;166.0;
COAG;SHALLOW FOUNDATION MAST;:;:;;;COAG;32.8635;244.8767;3.653;-2276837.0778;-4855375.2902;3441251.4289;2015-01-29;2022-09-24;2022-10-01;2645.0;
COAL;Steel Pin in Rock;:  UNKNOWN;:;;;COAL;40.2502;241.6539;1410.496;-2315051.4948;-4291240.3057;4100139.7542;2004-10-07;2021-08-11;2022-05-11;665.0;
COBA;PILLAR;0.5;CONCRETE BLOCK;0.5;CONGLOMERATE;COBA;37.9156;355.2789;202.074;5021255.8864;-414684.8091;3898182.425;2004-04-14;2022-09-17;2022-09-26;6398.0;
COBK;ALUMINUM MAST - 3 INCH;6.8;CONCRETE;0.5                :;;COBK;39.5297;253.9523;2814.779;-1362360.9079;-4736234.0058;4039637.9741;2017-01-20;2022-09-24;2022-10-01;2044.0;
COCD;STEEL PIPE;:  ROOF;:;;;COCD;29.2549;269.3385;-16.168;-64295.031;-5568700.8864;3098573.0289;2001-05-29;2003-06-13;2022-05-11;647.0;
COF1;:;:                      :;;;;COF1;39.605;240.7594;1251.989;-2404167.4969;-4294596.5733;4045091.8097;2007-10-17;2022-09-24;2022-10-01;4993.0;
COFC;ROOF MAST;11.5;CONCRETE BLOCK WALL;7.9;BEDROCK;COFC;40.5934;254.8396;1595.19;-1268728.0001;-4682467.5907;4129276.4017;2009-04-10;2022-09-24;2022-10-01;4701.0;
COGA;:;:                      :;;;;COGA;33.5449;277.866;-29.376;728258.7126;-5271227.9672;3504465.9767;2000-07-24;2003-09-30;2022-05-11;1034.0;
COH1;CONCRETE PILLAR;2;CONCRETE;: CONGLOMERATE;;COH1;29.6703;264.4574;-6.267;-535707.4673;-5520500.0437;3138671.0327;2009-01-06;2017-09-20;2022-05-11;2735.0;
COH2;CONCRETE PILLAR;2;CONCRETE;: CONGLOMERATE;;COH2;29.6285;264.5884;-11.469;-523299.5037;-5523988.1919;3134641.1482;2009-01-01;2022-09-21;2022-10-01;4427.0;
COH4;CONCRETE PILLAR;2;CONCRETE;: CONGLOMERATE;;COH4;29.7832;264.7848;-18.624;-503584.9088;-5517284.5717;3149526.0714;2009-01-01;2011-09-10;2022-05-11;740.0;
COH6;Concrete PILLAR;2;CONCRETE;: CONGLOMERATE;;COH6;30.0397;264.8152;-10.25;-499380.1446;-5503433.5167;3174182.786;2009-01-01;2015-06-30;2022-05-11;2085.0;
COKG;SHALLOW FOUNDATION MAST;:;:;;;COKG;32.8505;244.2715;-46.917;-2328311.0973;-4831720.8784;3440017.4401;2013-04-04;2022-07-31;2022-08-14;3009.0;
COKO;:;:                      :;;;;COKO;28.5117;279.2059;-2.819;897325.2487;-5536626.4649;3026456.7344;2004-02-19;2009-12-05;2022-05-11;1848.0;
COL9;:;:                      :;;;;COL9;44.7699;266.1867;278.591;-301657.2616;-4525795.2447;4469423.3628;2014-08-13;2022-09-17;2022-09-26;2802.0;COL2
COLA;GUYED STEEL MAST;12;Poured Concrete Block re-enforced with;1.5;CLAY;COLA;34.081;278.8783;81.649;816177.9104;-5224934.1254;3553937.0056;1998-09-01;2022-09-24;2022-10-01;8229.0;
COLB;PILLAR;2.43;Concrete;3.05               :;;COLB;39.9598;276.9542;185.242;592756.4286;-4859703.371;4074680.9473;2001-12-14;2022-09-24;2022-10-01;7118.0;
COLD;Steel Pin in Rock;:  UNKNOWN;:;;;COLD;39.411;242.1491;1690.819;-2305864.031;-4364062.9748;4028745.4905;2004-08-26;2021-02-27;2022-05-11;601.0;
COLU;Steel Pin in Rock;:  UNKNOWN;:;;;COLU;38.0888;241.946;1468.34;-2364454.2791;-4436804.4396;3914110.3322;2005-11-16;2022-06-28;2022-07-08;821.0;
COMP;:;:                      :;;;;COMP;41.5001;288.8473;-7.204;1545445.4905;-4527460.2958;4204178.8324;2010-11-27;2021-12-31;2022-09-24;2044.0;
COND;BLDING MOUNT 2 STEEL PIPE W/SCIGN MOUNT;:  ODOT MAINTENANCE BUILDING;:;;;COND;45.2379;239.8186;865.41;-2262057.1472;-3889510.4176;4506619.5739;2011-12-05;2022-09-24;2022-10-01;3737.0;
CONO;:;:                      :;;;;CONO;35.7026;278.7664;268.222;790310.0855;-5124962.7392;3701605.0838;2001-10-01;2012-10-16;2022-05-11;3499.0;
CONW;Steel Pin in Rock;:  UNKNOWN;:;;;CONW;38.1248;240.8277;2477.758;-2449783.0376;-4388346.3808;3917883.8926;2005-09-22;2021-07-12;2022-05-11;453.0;
COON;DEEP-DRILLED BRACED;:  UNKNOWN;:;;;COON;40.6526;247.879;1609.993;-1825218.8348;-4490247.4721;4134278.8425;1996-07-14;2022-09-20;2022-10-01;9037.0;
COPP;Steel Pin in Rock;:  UNKNOWN;:;;;COPP;39.915;241.8031;1280.637;-2315144.686;-4318292.0381;4071575.2945;2004-02-04;2021-08-12;2022-05-11;765.0;
COPR;Wyatt/Agnew drilled-braced;:;: Sediments;;;COPR;34.4149;240.1205;-22.84;-2624085.04;-4567199.8338;3584495.7994;2001-06-29;2022-09-24;2022-10-01;7728.0;
CORB;CONCRETE PILLAR;:  CONCRETE CYLINDER;:;;;CORB;38.2022;282.6265;35.942;1097041.3511;-4897238.4382;3923126.2493;2001-02-17;2022-09-24;2022-10-01;6845.0;
CORI;STEEL MAST;5;WALL;:;;CORI;39.9816;353.4804;298.434;4862596.4408;-555711.2487;4076614.0954;2010-04-01;2022-09-17;2022-09-26;4387.0;
CORV;PERMANENT STATION UNSPECIFIED;:  UNKNOWN;:;;;CORV;44.5855;236.6954;105.604;-2498423.2911;-3802819.9289;4454736.7421;1996-02-18;2022-09-24;2022-10-01;8894.0;
CORX;SHORT-DRILLED BRACED;:;: BEDROCK;;;CORX;32.4154;242.7518;74.322;-2467591.8151;-4791499.5117;3399444.1504;2000-11-16;2022-06-14;2022-07-08;2884.0;
CORZ;Forced centering device on top of an inox ma;:  CONCRETE SLAB;:;;;CORZ;43.1824;359.7602;324.034;4658308.7225;-19495.5769;4342517.8892;2012-01-25;2022-09-24;2022-10-01;3787.0;
COS2;:;:                      :;;;;COS2;33.8992;275.4738;303.508;505546.181;-5275585.9818;3537342.6511;2009-01-01;2009-04-15;2022-05-11;67.0;COSG
COSA;CONCRETE PARAPET;:  ROOF;:;;;COSA;33.5687;248.1178;391.611;-1982827.1771;-4936877.8715;3506904.7224;1999-07-02;2014-05-27;2022-05-11;5198.0;
COSJ;Steel Pin in Rock;:  UNKNOWN;:;;;COSJ;36.0634;242.119;1176.023;-2414322.1116;-4563512.2795;3734576.3254;2005-08-05;2020-09-14;2022-05-11;711.0;
COSL;Steel Mast;7.5;Concrete Pillar;4.0                :;;COSL;40.62;256.7737;1189.566;-1109456.6189;-4720449.1506;4131255.2614;2016-11-11;2022-09-24;2022-10-01;2080.0;
COSO;rock-pin;:;:;;;COSO;35.9823;242.1911;1455.441;-2411148.286;-4571430.5167;3727461.5779;1995-08-17;2022-09-24;2022-10-01;8085.0;
COT1;PITCHFORK METAL PIPE;:  ROOF;:;;;COT1;32.2245;249.0281;733.17;-1933230.3904;-5043635.2565;3381904.1582;1999-12-15;2022-09-24;2022-10-01;7392.0;
COT2;STEEL MAST;:  ROOF;:;;;COT2;32.2375;249.1691;758.864;-1920551.138;-5047675.7749;3383140.0275;2003-06-05;2022-09-24;2022-10-01;6401.0;
COTD;Wyatt/Agnew drilled-braced;:;: SAND;;;COTD;33.7325;243.6131;27.78;-2359842.7292;-4756605.4687;3521823.595;1999-10-15;2022-09-24;2022-10-01;6890.0;
COTM;BUILDING WALL;:;:;;;COTM;29.3938;265.0018;-18.541;-484544.9483;-5540379.6291;3111998.6749;2015-02-04;2022-09-24;2022-10-01;2531.0;
COTT;Steel Pin in Rock;:  UNKNOWN;:;;;COTT;41.5907;240.6582;1853.305;-2341644.5653;-4165633.7099;4212943.0562;2011-08-25;2021-08-26;2022-05-11;599.0;
COUT;INOX TRIANGULAR PLATE ON TOP OF AN INOX MAST;:  CONCRETE WALL;:;;;COUT;45.0411;359.8824;81.758;4514412.0824;-9266.0753;4490631.007;2007-09-19;2022-09-24;2022-10-01;5374.0;
COVE;Steel Pin in Rock;:  UNKNOWN;:;;;COVE;38.6235;247.1562;1687.362;-1937545.6682;-4599389.9989;3960806.2705;2010-07-28;2020-09-29;2022-05-11;1666.0;
COVG;STEEL MAST;:  ROOF;:;;;COVG;30.4759;269.9045;-5.925;-9174.0716;-5501675.3763;3215950.5093;2004-07-17;2022-09-24;2022-10-01;6574.0;
COVX;:;:                      :;;;;COVX;36.9046;284.2873;-1.093;1260167.6609;-4948417.3249;3808934.8333;2002-03-29;2016-11-16;2022-05-11;4223.0;
COWT;Steel Pin in Rock;:  UNKNOWN;:;;;COWT;37.91;241.2069;2206.183;-2427659.8876;-4417152.6719;3898922.0854;2005-09-22;2016-07-10;2022-05-11;380.0;
CPAC;PILLAR;1.52;POURED CONCRETE CYLINDER;3.66;CLAY;CPAC;43.0105;277.0657;217.875;574606.5295;-4635840.4771;4328504.9095;2005-03-09;2022-09-24;2022-10-01;6009.0;
CPBN;Wyatt/Agnew drilled-braced;:;: Bedrock;;;CPBN;35.0717;242.427;835.827;-2419255.1594;-4632919.9383;3644863.3782;2000-12-21;2022-09-24;2022-10-01;6897.0;
CPCO;SHALLOW FOUNDATION MAST;:;: Volcanic Cinder Cone;;;CPCO;43.7221;238.7668;2117.949;-2394742.7005;-3949031.0514;4387292.2864;2011-08-18;2022-09-24;2022-10-01;2443.0;
CRAM;PERMANENT STATION UNSPECIFIED;:  UNKNOWN;:;;;CRAM;37.0812;243.1816;1480.165;-2299016.6989;-4547649.0847;3825483.0099;2005-09-15;2019-09-22;2022-05-11;4446.0;
CRAT;PERMANENT STATION UNSPECIFIED;:  UNKNOWN;:;;;CRAT;36.8077;243.4307;972.519;-2287201.7098;-4573564.8231;3800907.9823;1999-03-23;2010-01-24;2022-05-11;3791.0;
CRBG;SHALLOW-DRILLED BRACED;:;:;;;CRBG;43.8303;247.3647;1532.97;-1774088.9259;-4254594.9242;4395570.1392;2008-01-25;2020-04-07;2022-05-11;4011.0;
CRBT;Wyatt/Agnew drilled-braced;:;: Bedrock;;;CRBT;35.7916;239.2492;205.434;-2648414.7625;-4451451.6872;3709580.8639;2001-09-13;2022-09-24;2022-10-01;7594.0;
CRCN;pillar;:;:;;;CRCN;36.114;240.432;28.64;-2545534.5352;-4486777.8753;3738433.5159;2010-09-27;2022-09-24;2022-10-01;4116.0;
CRDB;PILLAR/STEEL MAST;0;:                      :;;;CRDB;37.8774;355.2122;195.998;5023360.4372;-420748.9714;3894832.3385;2006-02-22;2019-08-26;2022-05-11;4799.0;
CRFP;glued-rod;:;:;;;CRFP;34.0391;242.9003;688.825;-2410446.7005;-4710490.4662;3550422.4656;1994-06-14;2022-09-24;2022-10-01;9570.0;
CRGG;SHALLOW FOUNDATION MAST;:;:;;;CRGG;35.2421;240.2752;1173.058;-2586241.993;-4529603.91;3660512.1814;2014-08-02;2022-09-24;2022-10-01;2970.0;
CRHS;Wyatt/Agnew drilled-braced;:;: SEDIMENTS, FINE ALLUVIAL;;;CRHS;33.8235;241.7272;-23.524;-2512420.0867;-4671388.5278;3530186.4908;1999-05-25;2020-11-08;2022-05-11;7487.0;
CRLT;:;:                      :;;;;CRLT;26.9166;278.002;-14.523;792243.7137;-5635647.1204;2869976.6508;2002-12-07;2004-07-17;2022-05-11;473.0;
CRNA;BASE ANCHORED TO ROOF;1.0;ROOF;:;;CRNA;41.3363;358.7785;649.443;4795404.4415;-102253.5429;4190965.9056;2010-10-30;2019-12-31;2022-05-11;2615.0;
CRND;Steel Pin in Rock;:  UNKNOWN;:;;;CRND;31.3479;249.7428;1623.292;-1888158.8066;-5116108.2251;3299738.1176;2010-08-19;2019-03-08;2022-05-11;3007.0;
CRNH;STEEL MAST;:;:;;;CRNH;39.407;350.8646;123.324;4872266.9833;-783499.4434;4027410.4674;2015-02-14;2022-06-01;2022-06-17;2627.0;
CRPL;Steel Pin in Rock;:  UNKNOWN;:;;;CRPL;38.7344;242.4965;2248.756;-2301433.1765;-4420353.4872;3970765.5377;2006-09-08;2020-12-04;2022-05-11;371.0;
CRPO;STEEL MAST;1.5;CONCRETE BLOCK ON ROOF;0.5                :;;CRPO;41.214;354.8903;827.91;4786491.7979;-428003.6622;4180874.7131;2017-07-27;2022-09-17;2022-09-26;1843.0;
CRRS;Wyatt/Agnew drilled-braced;:;: SEDIMENTS, LACUSTRINE;;;CRRS;33.0698;244.265;-81.906;-2323104.5156;-4819509.4367;3460404.3863;1999-01-14;2022-09-24;2022-10-01;8593.0;
CRST;STEEL MAST;:;:;;;CRST;30.7261;273.4938;32.566;334419.9486;-5477398.708;3239841.4244;2005-07-26;2022-09-20;2022-10-01;5428.0;
CRTG;:;:                      :;;;;CRTG;37.6062;359.0046;65.384;5058507.4137;-87892.8163;3870950.5209;2006-09-21;2014-06-29;2022-05-11;1762.0;
CRTR;Steel Pin in Rock;:  UNKNOWN;:;;;CRTR;35.3558;248.6919;1659.695;-1892878.5402;-4852946.1272;3671093.388;2011-03-13;2011-04-10;2022-05-11;29.0;
CRU1;SHALLOW DRILLED-BRACED;:;:;;;CRU1;34.0293;240.2152;702.183;-2628780.9779;-4592933.266;3549529.7295;2000-06-10;2022-09-24;2022-10-01;8107.0;
CRVC;:;:                      :;;;;CRVC;38.1146;358.1314;738.807;5022497.8102;-163861.5127;3915914.6702;2006-09-22;2021-12-20;2022-05-11;4646.0;
CRYS;Steel Pin in Rock;:  UNKNOWN;:;;;CRYS;39.2491;239.9903;2098.144;-2474477.4342;-4284239.2523;4015102.0116;2005-10-14;2022-09-24;2022-10-01;1860.0;
CSAL;STEEL TRIPOD;:  ROOF;:;;;CSAL;33.592;268.1852;65.644;-168430.253;-5315818.4507;3508874.0727;2007-01-01;2012-04-03;2022-05-11;1540.0;
CSCI;Wyatt/Agnew drilled-braced;:;: Bedrock;;;CSCI;34.1684;240.961;70.849;-2564318.6761;-4618739.9337;3561957.3054;2000-12-09;2022-09-24;2022-10-01;7879.0;
CSDH;Wyatt/Agnew drilled-braced;:;: SOFT SEDIMENTARY ROCK;;;CSDH;33.8615;241.7433;-9.175;-2510006.3855;-4670036.642;3533692.7064;1998-07-10;2022-09-24;2022-10-01;8616.0;
CSN1;Wyatt/Agnew driven-braced;:;:;;;CSN1;34.2535;241.4762;261.462;-2520225.9301;-4637082.3782;3569875.4241;1996-05-02;2022-09-24;2022-10-01;9166.0;
CSST;Wyatt/Agnew drilled-braced;:;: Bedrock;;;CSST;34.4081;240.6288;162.489;-2583750.894;-4590803.9764;3583976.6554;2000-12-16;2022-09-24;2022-10-01;7884.0;
CSTA;BUILDING WALL;:;:;;;CSTA;29.7959;264.4884;1.929;-532057.3475;-5513926.741;3150758.3578;2013-02-22;2015-04-29;2022-05-11;752.0;
CSTE;BUILDING WALL;:;:;;;CSTE;29.7956;264.4893;-2.183;-531975.416;-5513944.0403;3150733.7523;2015-05-20;2022-09-24;2022-10-01;2682.0;
CTA1;STEEL MAST;0.0;ROOF;0.0                :;;CTA1;36.3437;265.82;384.08;-374932.6099;-5130115.4186;3759207.1156;2005-03-09;2022-09-24;2022-10-01;5642.0;
CTBK;Galvanized Steel Mast (2.44 m);3.96;Concrete Pillar (1.52 m);4.57               :;;CTBK;41.4979;286.5815;49.183;1365303.0613;-4585216.8246;4204031.5249;2022-03-09;2022-09-24;2022-10-01;118.0;
CTBR;GALVANIZED STEEL POLE;:  WALL;:;;;CTBR;41.4972;286.5818;52.069;1365336.8862;-4585264.5083;4203973.3101;2005-06-25;2021-12-02;2022-05-11;5665.0;
CTDA;GALVANIZED STEEL POLE;:  ROOF;:;;;CTDA;41.0659;286.4928;-14.514;1367173.8742;-4617635.3769;4167931.0363;2005-06-24;2021-12-02;2022-05-11;5966.0;
CTDM;Wyatt/Agnew drilled-braced;:;: Bedrock;;;CTDM;34.5165;241.3868;406.066;-2519624.5714;-4618784.2692;3594034.8424;2001-06-29;2022-09-24;2022-10-01;7730.0;
CTEG;GALVANIZED STEEL POLE;:  WALL;:;;;CTEG;41.9234;287.3011;29.055;1413425.8661;-4537669.7501;4239299.8675;2005-06-25;2021-12-02;2022-05-11;5663.0;
CTGR;GALVANIZED STEEL POLE;:  ROOF;:;;;CTGR;41.3353;287.9503;-19.614;1478106.8772;-4562612.66;4190441.8101;2005-06-25;2021-12-02;2022-05-11;5952.0;
CTGU;GALVANIZED STEEL POLE;:  WALL;:;;;CTGU;41.2894;287.3321;-19.36;1429796.8589;-4581508.3735;4186611.7844;2005-06-25;2021-12-02;2022-05-11;5679.0;
CTI4;12' Stainless STEEL Tube anchored into CONCR;9;ROOF;0.823;MESA;CTI4;37.1529;252.2439;2017.97;-1552692.3892;-4848834.5434;3832151.7109;2012-09-27;2022-09-24;2022-10-01;3505.0;
CTMA;GALVANIZED STEEL POLE;:  ROOF;:;;;CTMA;41.7314;287.7892;53.963;1456378.9398;-4539029.4096;4223420.3081;2005-06-24;2021-12-02;2022-05-11;5971.0;
CTMC;SECO LEVELER ON STEEL MAST;12;STEEL I-BEAM ATTACHED W/10 INCH CHANNEL:   2                  :;;;CTMC;39.7215;254.8071;1818.97;-1287788.5501;-4742177.0488;4055414.5394;2011-01-26;2022-09-24;2022-10-01;4204.0;
CTMS;Wyatt/Agnew drilled-braced;:;: SEDIMENTS;;;CTMS;34.1241;243.6296;966.48;-2348052.0091;-4736257.0784;3558392.6552;1999-02-24;2022-09-24;2022-10-01;8518.0;
CTNE;GALVANIZED STEEL POLE;:  WALL;:;;;CTNE;41.6735;287.2855;40.512;1417685.1411;-4555728.2626;4218615.538;2005-07-21;2018-12-19;2022-05-11;4859.0;
CTPT;BLDING MOUNT 2-1/2 STEEL PIPE W/SCIGN MOUNT;:  ODOT MAINTENANCE BUILDING;:;;;CTPT;42.3767;237.106;370.566;-2562916.3663;-3962581.589;4276856.0102;2007-03-16;2022-06-07;2022-06-20;3971.0;
CTPU;GALVANIZED STEEL POLE;:  WALL;:;;;CTPU;41.8997;288.1109;55.865;1477963.9134;-4518935.3157;4237355.6234;2005-06-25;2021-12-02;2022-05-11;5667.0;
CTWI;GALVANIZED STEEL POLE;:  WALL;:;;;CTWI;41.8978;286.9303;190.895;1384615.3612;-4548661.0735;4237285.4789;2005-06-24;2021-12-02;2022-05-11;5983.0;
CUBX;INOX TRIANGULAR PLATE ON TOP OF A METALLIC P;1.0;CONCRETE BLOCK;:;;CUBX;44.8689;359.4336;58.991;4527704.5295;-44759.4708;4477073.3647;2002-10-04;2022-09-24;2022-10-01;6902.0;
CUEN;PILLAR;0.50;CONCRETE BLOCK;2                  :;;CUEN;40.0728;357.8603;998.059;4884861.144;-182506.0316;4084819.6271;2014-04-14;2022-09-17;2022-09-26;2920.0;
CUHS;Wyatt/Agnew drilled-braced;:;: SEDIMENTS;;;CUHS;34.9426;240.3261;635.298;-2591457.3118;-4548112.7844;3633016.7494;1999-11-23;2022-09-24;2022-10-01;8173.0;
CULC;PILLAR;:  CONCRETE BLOCK, ROOF;:;;;CULC;24.7951;252.5874;36.126;-1733739.0312;-5528108.5793;2658500.512;2009-01-20;2021-05-31;2022-05-11;3250.0;
CULI;PILLAR;:  CONCRETE BLOCK, ROOF;:;;;CULI;24.7986;252.6161;75.523;-1730936.751;-5528855.3632;2658865.6558;2003-03-01;2007-07-13;2022-05-11;723.0;
CVHS;Wyatt/Agnew drilled-braced;:;: ALLUVIAL SILT AND SAND DEPOSITS;;;CVHS;34.082;242.0983;119.084;-2474676.7615;-4673512.3558;3554051.3481;1998-07-25;2022-09-24;2022-10-01;8598.0;
CVMS;PERMANENT STATION UNSPECIFIED;:  UNKNOWN;:;;;CVMS;35.5414;270.3565;72.881;32327.6824;-5195699.8384;3686950.824;2000-06-25;2022-09-24;2022-10-01;6880.0;
CVO1;BUILDING ROOF;:;:;;;CVO1;45.6109;237.5039;66.659;-2401137.6529;-3769592.632;4535149.1284;2003-01-04;2020-05-25;2022-05-11;6112.0;
DAEX;Single stainless steel rod monument;0.5;:;BEDROCK;;DAEX;32.2245;244.5808;399.309;-2318384.0662;-4878283.7662;3381730.2623;2011-06-13;2022-09-24;2022-10-01;3751.0;
DAM1;glued-rod;:  ROOF;:;;;DAM1;34.334;241.6026;584.161;-2507721.1538;-4638444.5735;3577430.0877;1995-08-04;2000-04-04;2022-05-11;1645.0;
DAM2;pillar;:  CONCRETE BLOCK;:;;;DAM2;34.3348;241.6031;583.378;-2507655.5554;-4638419.607;3577506.5277;1995-08-27;2022-09-08;2022-09-24;7598.0;
DAM3;steel mast;2;CONCRETE BLOCK;0.15;Bedrock;DAM3;34.334;241.6025;580.008;-2507728.709;-4638436.7982;3577427.4776;2003-07-22;2022-09-14;2022-09-26;4397.0;
DAVI;Steel Pin in Rock;:  UNKNOWN;:;;;DAVI;39.9564;239.4215;2007.646;-2491373.8956;-4216300.2338;4075561.9454;2009-11-17;2017-09-26;2022-05-11;147.0;
DBLO;Steel Pin in Rock;:  UNKNOWN;:;;;DBLO;42.7905;239.5807;1516.796;-2374110.8857;-4043445.5693;4311482.1432;2015-02-26;2022-06-20;2022-07-03;242.0;
DCSO;STEEL MAST;:  ROOF;:;;;DCSO;43.211;236.6585;136.807;-2559087.9144;-3889694.414;4344710.3191;2005-01-21;2016-04-05;2022-05-11;4018.0;
